Market Name,Latitude,Longitude
Tumsar,21.3820399,79.7500206
Rayagada(Muniguda),,
Gunpur,26.7111328,78.0571317
Rayagada,19.44266975,83.58730533403485
Nawarangpur,,
Nabarangpur(Umerkote),,
Bhawanipatna,19.9104952,83.1678321
Kesinga,20.1906391,83.2227735
Mukhiguda,19.4410503,82.8531521
Junagarh,19.81370675,82.94679600534748
Baripada,21.9342456,86.7308825
Parlakhemundi,18.785724,84.0816192
Deogarh,24.4898318,86.6990182
Jharsuguda,21.8019368,83.97139644649639
Malkanagiri,,
Banki,20.392402500000003,85.60533804624151
Kendupatna,,
Kendupatna(Niali),,
Jeypore(Kotpad),,
Jeypore,18.8812875,82.552768
Sambalpur,21.5570606,84.15285150500952
Hinjilicut,19.485655,84.7442693
Digapahandi,19.3345967,84.58054079677683
Khariar Road,20.9013244,82.5109747
Bonai,,
Panposh,22.2285985,84.8053233
Kollam,8.8872399,76.5908768
Nedumkandam,9.8412988,77.1530497
Jorhat,26.7577925,94.2079645
Lanka,25.91331045,93.02566787197169
Dhing,26.4449658,92.52682282149547
Golaghat,26.5108262,93.9743686
P.O. Uparhali Guwahati,,
Howly,26.4249628,90.9712027
Kanker,20.2692747,81.4932111
Manendragarh,23.2167227,82.2035806
Kusmee,,
Samsi,25.276269,88.0101183
Gumla,23.1603759,84.45995652080032
Rajahmundry,17.0050454,81.7804732
Gudimalkapur,17.3879203,78.4371165
Adilabad(Rythu Bazar),,
Vantamamidi,17.8536143,82.4849144
kalanwali,29.82236475,74.93435913179185
Pune,18.5213738,73.8545071
Tawang,27.674194200000002,91.93620587613823
Reasi,33.20599085,74.862679360101
Udhampur,32.911964,75.32658448914768
Rajouri (F&V),33.3772495,74.3132332
Kathua,32.3765524,75.5243044
Parimpore,,
Batote,33.1227262,75.3210211
Narwal Jammu (F&V),32.6766223,74.8843514
Akhnoor,32.9019451,74.7347398
Samba,32.57591175,75.12034455530063
Hanmarkonda(Rythu Bazar),,
Mahabubnagar(Rythu Bazar),,
Chhindwara(F&V),,
Barad,31.4290029,77.4115144
Gadarwada,,
Itarsi,22.6122527,77.77826006651632
Bhopal(F&V),,
Harda,22.24279725,77.11791731666993
Sirali,22.1571274,77.06211023637695
Harda(F&V),,
Singroli,,
Lashkar,13.9293814,75.5788987
Lashkar(F&V),,
Khandwa(F&V),,
Syopurkalan(F&V),,
Thanesar,29.993039500000002,76.82922282678291
Sonepat,28.99197,77.0342633
Palwal,28.0599426,77.32234220926105
Dabwali,29.83275365,74.63672922932832
Ballabhgarh,28.340002,77.3164509
Faridabad,28.4031478,77.3105561
Mohindergarh,,
Samalkha,29.230736,77.00199190278104
Ambala City(Subji Mandi),,
Ambala City,30.3780749,76.7646449
Ambala Cantt.,30.3663493,76.82004830848476
Bahadurgarh,28.660964800000002,76.83467647083376
Jagadhri,30.1532045,77.30119568916503
Yamuna Nagar,19.1481254,72.827599
Farukh Nagar,28.4474356,76.8262064
Jamnagar,22.4732415,70.0552102
"Petlad(Veg Yard, Petlad)",,
Surat,21.2094892,72.8317058
S.Mandvi,22.8314482,69.35081
Ankleshwar,21.6293206,72.9945103
Nadiad,22.6895535,72.8713603
Nadiyad(Chaklasi),,
Nadiyad(Piplag),,
Vadodara,22.2973142,73.1942567
Padra,22.2412214,73.0855259
Vadodara(Sayajipura),,
Kullu(Patli Kuhal),,
Bhuntar,32.0030576,77.47947133683763
Bandrol,27.4325371,76.237328
Kullu,31.9578974,77.1089232
Bilaspur,22.1638486,82.13659231724193
Nahan,30.5601803,77.2923596
Paonta Sahib,30.4384439,77.6211774
Kangra(Jaisinghpur),32.060233498128454,76.55722376538075
Santoshgarh,,
Dasuya,31.8143115,75.6573011
Shahkot,31.0831064,75.3366711
Dhanaula,30.2844558,75.5725479
Barnala,30.3716802,75.5039886995367
Sultanpur,26.260473150000003,82.23805321467546
Dinanagar,32.1338479,75.4719883
Gurdaspur,31.9037264,75.22755867008682
Batala,31.8193025,75.1999941
Nawanshahar,,
Bathinda,30.17948135,75.04710979185342
Rajpura,23.28924135,74.97947327090435
Sirhind,30.625015,76.3853971
Dhuri,23.7011513,80.20494340320892
Lehra Gaga,29.9381957,75.8102026
Baghapurana,,
Dharamkot,30.9432095,75.2327764
Pathankot,32.3021899,75.65894063717977
Firozepur City,,
Machhiwara,30.9154607,76.1992887
Sahnewal,30.8402061,75.983601
Banur,30.5558556,76.7172678
Banur (Kheragaju),,
Dera Bassi,30.5882408,76.8438542
Birmaharajpur,20.8681154,84.0474915
Jajpur,20.87467875,86.12153933111324
Kalahandi(Dharamagarh),,
Boudh,20.6407463,83.99697042585481
Betnoti,21.7418915,86.8456965
Udala,21.583141750000003,86.58326766327767
Saraskana,22.2440445,86.5892333
Malkangiri(Korakunda),,
Koraput,18.7232023,82.61005964425227
Koraput(Semilguda),,
Sahaspur,29.1211913,78.6208906
Balugaon,19.7480397,85.2014998
Khariar,20.2700878,82.74788762720786
Bolangir,20.7502257,83.2499464
Kantabaji,,
Kandhamal,20.13069385,84.07904760590154
Tikabali,20.2463743,84.31900087528365
Sargipali,21.17981,83.5310697
Talcher,20.9322302,85.2005822
Sriganganagar(F&V),,
Chittorgarh,24.7171578,74.47181293724019
Alwar(FV),,
Keshopur,24.6953682,78.20908341511358
Shahdara,28.6758661,77.29850776650815
Azadpur,28.7057821,77.1819488
Anchal,8.9292657,76.9065012
Chathanoor,8.858422099999999,76.72203408934462
Sasthamkotta,9.0314647,76.6009828
Punalur,9.0174612,76.9264764
Kottarakkara,9.0055368,76.7832172
Manathavady,,
North Paravur,10.1484083,76.2249185
Thrippunithura,9.9440256,76.3489858
Perumbavoor,10.1147548,76.4778152
Piravam,9.8290255,76.4555856
Broadway market,12.988530608220296,77.60278495902337
Perinthalmanna,10.990946000000001,76.22992369222189
Thiruvananthapuram,8.4882267,76.947551
Neyyatinkara,8.3994883,77.087201
Vamanapuram,8.7218833,76.8980032
Anyara(EEC),,
Pothencode,8.6184233,76.8976931
Manjeswaram,12.67624945,74.97233982485085
Kayamkulam,9.1723603,76.500061
Cherthala,9.6912036,76.3257168
Chanthroor,,
Harippad,9.29317885,76.41468718520966
Alappuzha,9.5006651,76.41241428564258
Kanjirappally,9.544032399999999,76.81041661499324
Ettumanoor,9.6751487,76.5460114
Athirampuzha,9.6678442,76.5328609
Pampady,9.5656334,76.6443645
Wadakkanchery,10.6027705,76.20258139405338
Irinjalakkuda,10.3815259,76.1748017704823
Munnar,10.0869959,77.0600915
Kalyanpur,22.343456,88.414597
Teliamura,23.8245404,91.63163847188576
Kalsi,30.58491865,77.8828121149204
Biokhora,,
Barpathari,23.297425,91.404781
Kamalghat,,
Champaknagar,23.8042948,91.4891292
Mohanpur,23.94291905,91.33469934938347
Garjee,23.430471,91.4967565
Silachhari,,
Nutanbazar,,
Panichowki,,
Masmara,,
Pabiacherra,,
Bishalgarh,23.66055785,91.28928269478489
Bishramganj,23.5984072,91.3591951
Jumpuijala,,
Panisagar,24.2954598,92.15316536881491
Dasda,23.91816885,92.20300495700947
Kadamtala,24.44396795,92.20725809286651
Gandacharra,,
Kulai,12.9674838,74.8063798
Halahali,24.1049237,91.8256187
Masli,,
Cachar,24.758639950000003,92.88166475768219
Kharupetia,26.5174808,92.1469174
Garobadha,25.580509,90.022644
Rongram,25.63972735,90.2482655775471
Tura,25.5125616,90.2171526
Kotadwara,,
Rishikesh,30.1086537,78.2916193
Dehradoon,,
Haldwani,29.2144809,79.5279012
Ramnagar,29.394835,79.126934
Roorkee,29.8693496,77.8902124
Jaspur(UC),,
Bazpur,29.1580489,79.1467418
Gadarpur,29.0939082,79.30976492109349
Kashipur,29.2117573,78.9617306
Port Blair,11.6645348,92.7390448
Katpadi(Uzhavar Santhai),,
Baruipur(Canning),22.339440503184225,88.51157167619748
Coochbehar,26.340623,89.48121632866385
Pundibari,26.4131624,89.3940622
Diamond Harbour,22.1926886,88.1894879
Barabanki,26.942140600000002,81.38560869842297
Gonda,27.1103723,81.92389055909715
Jhijhank,,
Jasra,21.349478110421124,83.34616611784729
Unnao,26.5673264,80.61981926788883
Saharanpur,29.9856799,77.50406459058038
Jhansi,25.529855,78.65278023546288
Lalitpur,24.6999688,78.51861997577222
Faizabad,26.7807986,82.1486589
Vishalpur,24.98375845,80.6537228718885
Agra,27.1752554,78.0098161
Bahadurganj,26.2702242,87.8372762766685
Supaul,26.2768089,86.79596143977405
Gaya,24.67938895,85.01158329654393
Teghra,25.472746,85.93684661694631
Samastipur,25.77478845,85.867231389952
Kahalgaon,25.26518945,87.2835413545292
Koderma,24.4931239,85.55608107203881
Lohardaga,23.4770044,84.69866841888845
Jamshedpur,22.8015194,86.2029579
Gadhwah,,
4th Mile Dimapur,,
Tseminyu,25.9266027,94.20880156803302
Ziro,27.538668,93.815355
Meham,28.980347702619873,76.26125192541438
Hassanpur,28.0173749,77.45120036419466
Bhuna,29.523168,75.68834222697707
Pataudi,28.30147985,76.75007013436556
Hathin,28.03538915,77.22431984752508
Phagwara,31.2206734,75.7696463
Jagraon,30.8041704,75.4753645
Aatpadi,,
Dhenkanal,20.835149350000002,85.60223048169827
Bampada,21.50829805,86.87720344073864
Jaleswar,21.7976371,87.2200637
Karanjia,21.786376150000002,86.06605285191021
Bhanjanagar,20.02091565,84.48641719544607
Pallahara,21.43357875,85.19235006354975
Angaura,,
Keezhampara,9.71114705,76.73308406417206
Kattakada,8.5072457,77.0829921
Sonamura,23.4757939,91.2653482
Tinsukia,27.4879722,95.3601855
Sibsagar,26.9834936,94.6394226
Darjeeling,27.0377554,88.263176
Kalimpong,27.0702869,88.4723676
Akbarpur,26.4200687,82.5382541
Atarra,25.2589804,80.61822169835852
Karvi,,
Moth,25.77799675,78.92538877298873
Meerut,29.0018557,77.76796714992041
Bihariganj,25.74098785,86.97578543969998
"Dibbala Bazar,RBZ",,
Lamlong Bazaar,,
Rajula,21.038617,71.4438845
Ranniangadi,,
Pandalam,9.2251208,76.6781249
Ezhamkulam,9.1535061,76.7712232
Omalloor,9.2427057,76.7558362
Parakkodu,10.6677799,76.71114320000001
Kuttoor,9.3587884,76.5881013
Dhara,24.4741425,75.6791174
Moovattupuzha,9.83689,76.39178902863769
Manjeri,11.1202289,76.1198109
Kondotty,11.1457203,75.9643753
Kottakkal,11.0004806,76.004758
Quilandy,11.46159795,75.70205209935727
Perambra,11.559725,75.7581231
Kallachi,11.68367375,75.66452241144711
Vengeri(Kozhikode),11.293783340314295,75.78982626348603
Nedumangadu,8.6052118,77.0028311
Kasargod,12.4914722,74.9877613
Kanjangadu,,
Neeleswaram,12.165012449999999,75.1609473631786
Irikkur,12.0519432,75.63144658664586
Taliparamba,12.0994756,75.47057356867221
Kuthuparambu,,
Thalasserry,11.7607698,75.48217983646745
Kannur,11.8763836,75.3737973
Chengannur,9.3182808,76.6085318
Aroor,9.8783108,76.3038826
Kuruppanthura,9.740193840946592,76.51754172031032
Kottayam,9.6287383,76.64553257390992
Thalayolaparambu,9.7855581,76.4474906
Chavakkad,10.5243344,76.07993905744445
Thrissur,10.5270099,76.214621
Koduvayoor,11.0917987,75.9545385
Vandiperiyar,9.5729206,77.0918879
Kattappana,9.7561717,77.1140611
Thodupuzha,9.8976798,76.7134225
Arani,12.686229449999999,79.29924435821087
Dhanbad,23.7952809,86.4309638
Simdega,22.59045725,84.54648050193023
Giridih,24.331454649999998,86.1548117295738
Madhupur,24.287867900000002,86.61050950020086
Alur,15.427691849999999,77.25782604935607
Gajapathinagaram,18.29918725,83.34888369038347
Suryapeta,17.2495432,80.1561982
Yellandu,17.590959050000002,80.3204608
Khammam,17.2465351,80.1500326
Karimnagar,18.4348122,79.1328042
Nagarkurnool,16.415762649999998,78.68304333132829
Mahbubnagar(Nawabpet),,
Umariya,23.86998665,79.55273806218145
Mandla,22.687107400000002,80.58163411525186
Kareli,22.9322525,79.0666841
Bijawar,24.63243415,79.48818387696684
Harpalpur,25.30255475,79.29183139589256
Silvani,23.30960765,78.44241482840388
Udaipura,26.20730275,78.28501750938239
Devandranagar,,
Ajaygarh,24.9029127,80.2578736
Jaithari,23.37967825,78.8876597354134
Anuppur,23.0346179,81.75102551563023
Agar,20.818591650000002,76.94315240306656
Badod,24.104763900000002,75.27826304494052
Bhensdehi,,
Nasrullaganj,22.6860025,77.27380243871056
Sarangpur,23.11662805,81.45854585436638
Shahpura,25.56407305,74.9513261187484
Keolari,23.80425785,79.56283173973699
Chaakghat,,
Jhabua,22.88696515,74.72432486327068
Segaon,22.03211255,74.92397871462916
Sanawad,22.1777783,76.0737911
Kasrawad,22.1191199,75.61059851263747
Bina,24.1712328,78.1851809
Kesli,23.397014499999997,78.19853783111228
Shahagarh,,
Varaseoni,,
Amarpatan,24.3218284,80.95500952500677
Mehar,23.9873061,78.66172725152217
A lot,32.1050383,76.632391
Budhar,23.183604000000003,81.57141465886929
Shahdol,23.3002343,81.364771
Beohari,24.0005338,81.3800132
Israna,29.28077165,76.84941611724321
Hissar,29.1155934,75.1835578
Kalawad,22.289599094671228,70.77721679145007
Amirgadh,24.4060517,72.6411054
Holenarsipura,12.7852158,76.2431266
Channarayapatna,13.2455918,77.797084
Arasikere,13.3159809,76.256849
Hassan,13.030185249999999,76.17449676658171
Arakalgud,12.7628914,76.062849
Belur,13.1645671,75.8634851
Hoskote,13.073014,77.7921381
Bangalore,12.98815675,77.62260003796
Kanakapura,12.5450268,77.4199095
Doddaballa Pur,,
Ramanagara,12.720005950000001,77.31841990623
Kalburgi,17.3310003,76.8334228
Piriya Pattana,,
K.R.Nagar,17.3393183,78.4836057
Nanjangud,12.1220681,76.6843409
Mysore (Bandipalya),12.23020605,76.65265934350887
Davangere,14.4661266,75.9206361
Harappana Halli,,
Yalburga,,
Gangavathi,15.4261076,76.5306714
Kustagi,15.43727875,75.63513008017583
Sindhanur,15.7692192,76.7549604
Raichur,16.054719400000003,76.90036472411589
Srirangapattana,12.402075100000001,76.69894281747419
Pandavapura,12.9541478,76.1722176
Mandya,12.6368939,76.72754771427819
K.R. Pet,17.3800954,78.4586212
Kadur,11.26105,79.10351
Tarikere,13.7062309,75.8183561
Dharwar,15.4540505,75.0066516
Hubli (Amaragol),15.39800485,75.07915147093628
Annigeri,15.4260116,75.4333351
Kalagategi,,
Yadgir,16.57441225,76.92544344576471
Shikaripura,25.47996075,77.3699711600575
Bhadravathi,13.8502075,75.7037863
Chamaraj Nagar,,
Gundlupet,11.808496,76.6916141
Hungund,16.048354893813055,76.06666229413048
Badami,15.9203874,75.6807865
Bilagi,16.3464175,75.6190861
Bagalakot,,
Haliyala,14.4506805,74.8260301
Sindagi,16.9194778,76.2350305
Chitradurga,14.3049174,76.52972341987515
Nippani,16.4020402,74.3842372
Hoovinahadagali,,
Kottur,10.5376797,76.9808451
H.B. Halli,,
Bellary,15.1433952,76.9193876
Rona,15.6996944,75.7349912
Mundaragi,15.2051817,75.8840183
Laxmeshwar,,
Nargunda,19.5165957,80.5295062
Shiggauv,,
Ranebennur,14.6165795,75.6341529
Haveri,14.71802675,75.36564232024529
Savanur,12.7363816,75.3145369
Hanagal,14.7653513,75.1244336
Mangalore,12.8698101,74.8430082
Gowribidanoor,,
Chintamani,13.3986587,78.0533058
Kunigal,13.0260158,77.0222704
Pavagada,14.105626,77.2749939
Sira,13.7409467,76.905738
Huliyar,13.335172106708226,76.47391185133033
Madhugiri,13.6601789,77.2140882
Gubbi,13.3095743,76.9400698
Jalana,29.1233432,76.4028074
Degana,26.8958747,74.3222498
Jhunjhunu,28.0810679,75.37924775151512
Rudrapur,28.9707183,79.3972845
Kharsiya,,
Kota,25.1737019,75.8574194
Pakhanjur,20.0386772,80.6245447
Amoda,23.965674300000003,79.44270847661664
Bardewri,,
Jaspur,29.276760250000002,78.86655713088385
Kunkuri,22.7419869,83.9494993
Baikunthpur,26.281738150000002,84.7428214590481
Surajpur,23.357776899999998,82.97612766699449
Abhanpur,28.0150138,76.852262
Madathukulam,10.62439365,77.35233041755609
Kosikalan,27.7927679,77.4406575
Devband,,
Sandila,27.12544385,80.54149084148398
Vilaspur,17.9187994,76.3794637
Chhapra,25.7784105,84.7514507
Jammu (Grain Mandi),,
Ichapuram,18.9020347,83.7092318
Kovvur,17.0075314,81.7276966
"P. Ramacharyulu Park,RBZ",,
Bowenpally,17.4755371,78.4792282
Hyderabad (F&V),,
L B Nagar,17.3498286,78.5479138
Gaddiannaram,17.3636842,78.523971
Moreh,24.2481189,94.3028748
Thoubal,24.62525025,94.00835224071031
Imphal,24.7991162,93.9364419
Bishenpur,24.6267287,93.7600454
Gohad,26.41059725,78.44569960925098
Bhind,26.3518828,78.68631887730044
Tikamgarh,24.85521045,79.04725459918899
Nainpur,22.4257867,80.1044938387902
Chhindwara,22.20718965,78.79883295930742
Chaurai,21.96692635,78.5443610404424
Pandhurna,21.5898263,78.5258059
Katni,23.717639300000002,80.26101812940934
Shivpuri(F&V),,
Narsinghpur,22.93455595,79.08678489806229
Dewas,22.8057498,76.294040773288
Pipariya,22.7543115,78.3558763
Bareli,28.355099,79.417851
Obedullaganj,,
Begamganj,23.61275585,78.35005483020731
Gairatganj,23.4101246,78.2212624
Raghogarh,24.4407065,77.19504893506408
Sidhi,24.211268699999998,81.70004154154752
Simariya,23.7714632,78.87132759333784
Panna,24.44989305,80.14627227486437
Bhopal,23.2584857,77.401989
Ashoknagar,24.618609499999998,77.87869828577024
Betul,21.8797472,77.87536507259225
Kurawar,23.509719949999997,77.00577944611139
Khilchipur,24.03447745,76.5768551033463
Seoni,22.2748109,79.72025222428486
Barghat,22.0288467,79.7438467143195
Datia,25.91829465,78.66449615888288
Ganjbasoda,,
Petlawad,23.020958649999997,74.80713541312265
Mandsaur(F&V),,
Rahatgarh,23.7926876,78.39869736664718
Deori,24.5072214,86.14040255547135
Jaisinagar,23.66907655,78.63208701233464
Bamora,23.13195,75.68497531567509
Sagar,23.808307550000002,78.75825398721975
Khurai,24.0521941,78.3309666
Balaghat,21.8611589,80.3237104768576
Ujjain,23.1885131,75.7716562
Ujjain(F&V),,
Mhow,22.5586725,75.7686558
Badwani,18.8240919,76.7136454
Badnawar,23.02312625,75.20649997379437
Burhanpur(F&V),,
Jobat,22.41332575,74.56485784825489
Bhitarwar,24.851984350000002,79.02902822604989
Dabra,25.8818881,78.3305079
Nagod,24.5705157,80.5867584
Satna,24.6954445,80.77703482475752
Khandwa,21.8203752,76.3555424
Jabalpur,23.1701522,79.9324505
Jabalpur(F&V),,
Shahpura(Jabalpur),23.1415955,79.6637661783698
Javera,,
Hata,26.7403,83.7441
Damoh,23.7981005,79.54193561694873
Sheopurkalan,,
Narnaul,28.0438456,76.1062015
Ch. Dadri,,
Tosham,28.779940449999998,75.82826393797174
Siwani,28.8241239,75.5956446015295
Barwala,29.350185,75.93817117364267
Bapauli,,
Naraingarh,30.44557605,77.12563181703138
Shahzadpur,30.446413,77.0334204
Jhajjar,28.59644605,76.65053662578484
Tohana,29.645988799999998,75.81205314793667
Fatehabad,29.5359209,75.57529014661358
Indri,29.89205745,77.0910014726932
Asandh,29.5212674,76.603457
Barwala(Hisar),29.350185,75.93817117364267
Narnaund,29.26077745,76.1146499941892
Uklana,29.5124365,75.8782021
Gurgaon,28.4646148,77.0299194
Punhana,27.8637502,77.2051612
Visnagar,23.6978037,72.5507598
Mansa,29.8764133,75.48895639945275
Junagadh,21.5220416,70.4582458
Bilimora,20.7671693,72.9693451
Sami,23.6841533,71.7781681
Dahod,22.919409899999998,74.13427251978064
Solan,30.9077569,77.1023645
Una,31.5834642,76.23514522983882
Bhogpur,31.5536751,75.6419145
Lohian Khas,31.1654311,75.1964924
Tapa,30.3030899,75.3669298
Budalada,,
Ajnala,31.8442334,74.7625233
Rampura Phul,30.2703978,75.2373537
Raman,32.1193895,77.1964259
Ghanaur,30.3312684,76.6120004
Samana,24.54463355,80.24473137451659
Patran,29.9554252,76.0516968
Dudhansadhan,,
Patiala,30.20927775,76.33972313649818
Bhawanigarh,30.2623648,76.041332
Sangrur,30.135717,75.85333259556887
Faridkot,30.6014507,74.79501756894368
Ropar,30.9688367,76.526088
Kot ise Khan,30.9430954,75.13724
Ferozepur Cantt.,30.9282528,74.6287351
Mullanpur Dakha (Sawadi),,
Mullanpur,30.7191606,76.3660295
Kurali,21.444670549999998,78.29885908521152
Muktsar,30.4692,74.5182
Giddarbaha,30.2051335,74.6635003
Chikkamagalore,,
Shimoga,14.05565025,75.23805528480658
Udupi,13.5269784,74.87318787345797
Kundapura,13.6133737,74.7286856
Yellapur,18.0829891,79.4985293
Gadag,15.41669195,75.6815801296564
Bangarpet,12.98822,78.1812561
Malur,21.5157093,77.03435129998434
Kolar,13.18050655,78.26693288646007
Chickkaballapura,,
Mumbai,19.054999,72.8692035
Achalpur,21.240792499999998,77.42779700393686
Akola,20.76181225,77.1921156663574
Udgir,18.3921349,77.1196118
Ausa,18.2510243,76.500958
Aurangabad,24.80332005,84.41101977690866
Kannad,20.2654298,75.1322409
Kolhapur(Laxmipuri),16.697835050000002,74.22662847743607
Kolhapur,16.7028412,74.2405329
Kolhapur(Malkapur),16.9049286,73.9476137
Jaysingpur,16.7789886,74.5564244
Bhiwapur,20.2688675,76.65364555558497
Ramtek,21.3957522,79.3257474
Umared,20.2882631,78.6798548
Mandhal,21.31726565,79.7345547059611
Kamthi,21.95972465,78.82877200552844
Nagpur,21.1498134,79.0820556
Aheri,19.4131755,80.0039973
Rahuri(Vambori),,
Rahata,19.7170595,74.4799561
Rahuri,19.40315545,74.61056048422637
Ahmednagar,19.162772500000003,74.85802430085195
Shrirampur,22.7549951,88.3416672
Parbhani,19.29019805,76.60264434278307
Palam,28.5918933,77.0828242
Hingoli,19.54311635,77.17394323993398
Sangli,17.1726928,74.58676543279755
Malegaon,20.5576062,74.5246514
Nasik,19.9834939,73.8926930853926
Sinner,19.8972539,74.1623127
Devala,19.9468174,79.2553995
Lasalgaon,20.1426837,74.2377507
Kalvan,,
Deglur,18.46775555,77.49988346749572
Nanded,19.09400875,77.48319215130235
Deoulgaon Raja,,
Malkapur,20.891958,76.2040353
Khamgaon,20.650223949999997,76.55918676833416
Bhandara,21.1225869,79.79450898891825
Pavani,17.2625724,80.1615163
Lakhandur,20.7549048,79.8838444
Chandrapur,20.0967555,79.50454752230621
Varora,20.324558449999998,79.00685135916387
Bhadrawati,20.11084085,79.12131080748601
Brahmpuri,25.577208,74.50284
Ulhasnagar,19.2236329,73.1671515
Kalyan,19.2396742,73.1366482
Sangola,20.518996100000003,76.79584072166026
Pandharpur,17.7255921,75.30019362933085
Barshi,18.2341108,75.6875109
Solapur,17.84990665,75.27632027348457
Jalna(Badnapur),19.86980152443909,75.65936597957686
Chalisgaon,20.50236555,74.96556999100015
Jalgaon,20.84288265,75.52612463784979
Chopada,23.8917628,77.4049258
Shirur,18.76109885,74.20952895424165
Junnar(Otur),19.2623731,73.9841887
Maanachar,,
Pune(Manjri),,
Pune(Pimpri),18.62734915,73.80469695
Pune(Khadiki),,
Khed(Chakan),18.7398972,73.83254035723428
Indapur(Bhigwan),,
Pune(Hadapsar),,
Khed,18.8515893,73.83618598043944
Kaij,18.7141179,76.0651612
Kille Dharur,,
Jawali,32.1521803,76.0184763982279
Koregaon,17.6919946,74.1490683
Satara,17.63612885,74.29827807601782
Vai,20.4801154,78.1676841
Vaduj,17.5950822,74.4504661
Patan,23.773753,71.67985812598445
Karad,17.2852127,74.1822147
Navapur,21.1666239,73.7725174
Shahada,22.586319500000002,75.76809636533545
Dondaicha,21.3312641,74.5628682
Sakri,23.1077961,79.79178194477156
Dhule,21.1305215,74.49006143365727
Shirpur,20.430923749999998,76.18583486201827
Keonjhar,21.5,85.5
Angul(Jarapada),20.910633726547527,85.0105930583382
Udaipur,24.578721,73.6862571
Kuchaman City,27.0534366,74.8513462
Deedwana,26.6106374,76.3147921
Deedwana(Choti Khatu),,
Nagaur,26.9873443,73.73890107316704
Merta City,26.6480362,74.0335019
Sanchor,26.7845026,74.7239399
Jalore,25.27186295,72.43881214602396
Lalgarh Jatan,,
Jodhpur(F&V)(Paota),,
Neem Ka Thana,27.7215907,75.74804647386591
Itawa,22.98142305,76.03709020181216
Kota (FV),,
Pratapgarh,25.75,81.75
Baran,24.92081645,76.6821984669639
Atru,24.8820675,76.6700458
Bikaner(F&V),12.966018649999999,77.60430857835865
Khajuwala,28.7070054,72.5941081
Jaipur (Grain),,
Kishan Renwal(Fulera),,
Bundi,25.4367659,75.736147085863
Narela,28.8464766,77.0856631
Kollengode,10.6125448,76.6973878
Vadakkenchery,10.5922019,76.4840809
Palakkad,10.78736915,76.47421718925105
Karimganj,24.58281955,92.37254865
North Lakhimpur,27.254431,94.1120339
Bongiagaon,,
Bohorihat,,
Vikasnagar,30.3881655,77.84861616599443
Haridwar Union,,
Bhagwanpur(Naveen Mandi Sthal),,
Lakshar,,
Sitarganj,28.959150049999998,79.72826945827646
Kicchha,,
Khateema,,
Bagbahra,21.0473726,82.3863574
Konta,23.499756650000002,76.44436861020111
Kawardha,22.0059254,81.2332055
Bhatapara,21.7353478,81.9444592
Balodabazar,21.6564735,82.1605962
Katghora,22.5096189,82.5507586
Dhamtari,20.532625850000002,81.71559867809776
Bemetara,21.6783867,81.44125784340252
Gharghoda,22.1674127,83.3485457
Baramkela,21.5646639,83.2622051
Raigarh,22.23617945,83.35295335037318
Gariyaband,20.52675605,82.19172167092043
Devbhog,,
Ambikapur,23.1226343,83.1981886
Pendraroad,,
Kondagoan,,
Charama,20.4929943,81.3663339
Pathalgaon,22.5565847,83.4586397
Bageecha,26.8475376,88.3003426
Ramanujganj,23.806378,83.6998108
Dongargaon,20.6991059,77.10391120650702
Neora,25.5750487,84.986958
Raipur,21.2380912,81.6336993
Arang,21.1986343,81.9659898
Gidam,18.9754038,81.397147
Lormi,22.2715391,81.7022592
Panruti,11.7722823,79.5518978
Vellore,12.9021849,79.06110398623842
Thiryagadurgam,,
Ramkrishanpur(Howrah),,
Dadri,28.5387298,77.5372191
Rudauli,26.726648949999998,81.71138706830052
Mainpuri,27.20930715,79.06253691568566
Ghiraur,,
Ahirora,,
Devariya,25.6590899,75.9084034
Barhaj,26.29645425,83.75689640454809
Haldaur,29.2911363,78.2842594
Bijnaur,29.8575065,78.5598995
Najibabad,29.6131324,78.3430066
Kiratpur,25.995247550000002,86.36518784546662
Tanda,26.518256899999997,82.69469151431963
Uttaripura,,
Choubepur,,
Varipaal,,
Kanpur(Grain),,
Bindki,26.0421896,80.51491659562525
Khaga,25.719631550000003,81.10589450855122
Jahanabad,23.50622755,76.468620551118
Fatehpur,25.8348023,80.91545468512774
Raath,25.5966524,79.5768386
Bharuasumerpur,,
Maudaha,25.706566549999998,80.0434571115807
Kurara,25.9802343,79.9903952
Hamirpur,25.75,80.0
Muskara,23.176979799999998,76.93397203994685
Ballia,25.87495945,84.12103292973015
Jaunpur,25.7967065,82.4888992436659
Mugrabaadshahpur,,
Bareilly,28.45823445,79.40474517998476
Anwala,23.12280615,77.29516427072019
Maigalganj,27.7175858,80.3437067
Azamgarh,26.023639000000003,83.02931045602446
Banda,25.44385365,80.55952371281752
Baberu,25.5463728,80.77873015687389
Etawah,26.715562900000002,79.09170983360895
Jasvantnagar,,
Mahoba,25.36159385,79.70601096636403
Khalilabad,26.7751208,83.05424
Paliakala,,
Lakhimpur,27.17633555,94.19929317390199
Gopiganj,25.2844591,82.4326002
Bharwari,25.5615617,81.4899572
Farukhabad,,
Katra,26.2430103,85.6505848757009
Chandausi,28.449104,78.7828513
Sambhal,28.42719275,78.55645464651963
Bhehjoi,,
Atrauli,27.973051849999997,78.40054485402743
Purwa,26.48634025,80.8367137780014
Bangarmau,26.8916447,80.21506
Lucknow,26.8381,80.9346001
Banthara,26.694679,80.8337445
Sirsaganj,27.0569981,78.686047
Firozabad,27.19419535,78.46049561440218
Nakud,,
Gangoh,29.780632,77.2629435
Nanuta,,
Sultanpurchilkana,,
Rampurmaniharan,,
Haathras,,
Parikshitgarh,28.97107,77.932802
Mawana,29.046588149999998,77.96334508106705
Sardhana,29.1486525,77.63620186539615
Soharatgarh,,
Jayas,19.1641399,72.8553163
Salon,26.088814999999997,81.45337412154478
Raibareilly,,
Lalganj,25.992938799999997,81.6604114915786
Sandi,27.2894559,79.9529044
Madhoganj,26.0804138,75.5530214
Tulsipur,27.5318766,82.4090082
Balrampur,27.4476988,82.39562446515757
Badayoun,,
Partaval,,
Jahangirabad,28.4033531,78.1049538
Sikarpur,21.8096537,88.1622093
Khurja,28.206280749999998,77.87643676127676
Anoop Shahar,,
Siyana,28.6277173,78.0599187
Sikanderabad,,
Buland Shahr,,
Madhogarh,26.28560895,79.2131817263593
Konch,24.9415836,84.75330080853664
Jalaun,26.104863299999998,79.39191362484078
Orai,25.9359555,79.42432768008604
Kalpi,26.1216714,79.7458188
Sitapur,27.502674749999997,80.833513937751
Mehmoodabad,,
Ghaziabad,28.7749966,77.4586967071196
Hapur,28.7166767,77.89043300265203
Tanda(Rampur),18.5085563,77.2246599
Gazipur,22.4118338,88.2467986
Jangipura,20.6623813,75.5817103
Jamanian,,
Saidpur,25.58378845,83.2637704409629
Yusufpur,25.622302,83.7560438
Muzzafarnagar,29.38215176223338,77.8001359793601
Thanabhawan,29.5909007,77.4251074
Bahraich,27.734382250000003,81.47653998303304
Risia,27.6884537,81.6036483
Mihipurwa,,
Tamkuhi Road,26.7240522,84.2279993
Fatehpur Sikri,27.0911655,77.6623984
Khairagarh,21.4166145,80.9818486
Kaimur,24.975466,83.57683787166525
Bokaro (Chas),23.6544338,86.1456444
Ranchi,23.3700501,85.3250387
Chaibasa,22.5483518,85.81888764651222
Tenning,,
Phek,25.6514473,94.38097877104043
Nagur,18.0326479,76.3704729
Neemuch,24.63055165,75.18289996326385
Dhamnod,23.436314449999998,74.97022279620994
Gandhwani,22.353615,75.00748457650056
Manawar,21.811126350000002,75.54794471865057
Becharaji,23.54435865,72.08511515731678
Vadnagar,23.7853622,72.6332132
Vijapur,23.5590941,72.7449399
Kadi,23.2969449,72.3306381
Unjha,23.7968484,72.3818955
Radheja,,
Taleja,,
Bhavnagar,21.7718836,72.1416449
Radhanpur,23.8472862,71.5858439
Siddhpur,23.918279,72.3681846
Talod,23.3530428,72.9510592
Modasa(Tintoi),,
Bayad,23.2248593,73.2153042
Modasa,23.4634245,73.2990631
Meghraj,15.4621438,74.99032966819476
Bayad(Sadamba),,
Dhansura,23.3467,73.2054
Bayad(Demai),,
Botad,22.046709749999998,71.66896169930108
Anjar,23.1194278,70.0363797
Kapadanj(Moti Jaher),,
Kapadvanj,23.0232402,73.0727531
Balasinor,22.9561711,73.3370129
Panthawada,24.496328,72.3061121
Tharad,24.3897272,71.6292685
Palanpur,24.1709794,72.4366375
Thara(Shihori),,
Banaskantha,24.26939205,72.1620246197068
Deesa(Bhildi),,
Bhabhar,24.0650833,71.6155279
Lakhani,23.7540732,78.73463953333442
Tharad(Rah),,
Vav,24.363947,71.5123139
Thara,24.9016247,79.65084267118864
Dhragradhra,,
Dasada Patadi,,
Siddapur,18.6126973,77.8412568
Fruit Market,28.6321433,77.32272689413207
Shegaon,20.8007513,76.6905257
Malpura,25.65446485,76.69072431831921
Tonk,26.122266000000003,75.82386305157223
Niwai,24.186939549999998,79.71492373821754
Malpura(Todaraisingh),,
Deoli,20.631117500000002,78.39717127244442
Gangapurcity(Old Lal mandi),,
Gangapur City,26.4681809,76.7266811
Nagaur(Jayal),,
Sumerpur,25.1538056,73.0816488
Jaitaran,26.2031507,73.9382064
Sojat Road,25.861057,73.7542302
Bhilwara,25.48911765,74.33007256947698
Pipar City,26.3746911,73.5315802
Jodhpur(Grain)(Phalodi),,
Jodhpur (Grain)(Mandor),,
Jodhpur(Grain)(Bhagat Ki Kothi),,
Bilara,26.1861475,73.7000078
Lalsot,26.5630662,76.3281328
Ramaganj Mandi,,
Kekri,25.9933039,74.98498626391584
Madanganj Kishanganj,,
Bijay Nagar,26.13700515,91.80173093993017
Bikaner (Grain),,
Bayana,26.9059419,77.2924498
Jaipur(Grain)(Chandpole),,
Chaksu,26.6059831,75.9430338
Sardar Shahar,28.436534,74.497775
Nagari,13.3208103,79.585197
Achalda,,
Samsabad,,
Bobbili,18.5748202,83.3522594
Penamaluru,16.4630939,80.7186115
Nuzvid,16.7907012,80.8476103
Tirupati,13.6316368,79.4231711
Cuddapah,14.4956602,78.8349278
Kavaratti,10.5672203,72.6394636
Warangal,17.9820644,79.5970954
Katni(F&V),,
Chhatarpur,24.760608949999998,79.67817759088484
Guna(F&V),,
Shajapur(F&V),,
Timarni,22.3762705,77.2301922
Thandla,22.494257400000002,74.55038121800388
Sagar(F&V),13.937121343469542,75.55724674555829
Sanwer,22.977861400000002,75.8466311940054
Sabalgarh,26.2485682,77.40972854656755
Porsa(F&V),,
Morena(F&V),,
Jora,23.894478499999998,81.36863319911575
Rajgarh,23.87167065,76.77447033719486
Satna(F&V),,
Cheeka,30.048095,76.3338623
Dhand,25.39802585,78.31888560135313
Kalayat,29.671063699999998,76.29524166767001
Shahabad,17.1219321,76.9433966
Ladwa,30.0346232,77.04859260347244
Pehowa,29.99888435,76.55827733109166
Iamailabad,,
"New Grain Market , Rohtak",,
Rohtak,28.9010899,76.5801935
Kosli,28.3921086,76.4501215507954
Gohana,29.118940549999998,76.67054430183177
Sonepat(Kharkhoda),,
Ganaur,29.13783505,77.02029209666307
Jind,29.3152073,76.314082
Safidon,29.378315,76.6272829981396
Narwana,29.58305975,76.07540656922897
Hodal,27.8999168,77.3739284
Sirsa,29.606304100000003,74.9036567857643
Ellanabad,,
Ateli,28.1006591,76.2535322
Khanina,,
Bhiwani,28.7931703,76.1391283
Loharu,28.566631700000002,75.73782871345001
Loharu(Dighwa),,
Raipur Rai,31.2754674,74.8985189
Panipat,29.3912753,76.9771675
Mullana,30.2750178,77.04839547032566
Barara,30.2423627,77.04605187665854
Tohana(New Veg Market),,
Ratia,29.6930173,75.51830682613976
Jakhal,29.8019302,75.8223255
Nissing,29.691133,76.7606231
Kunjpura,29.71612945,77.08025348516591
Adampur,29.25388505,75.50174299410551
Rattia,,
Hansi,29.1352917,75.97647564346738
Chhachrauli,,
Mustafabad,29.6436099,77.1079093
Radaur,30.043406750000003,77.18544414524905
Sadhaura,30.416175000000003,77.22497901819742
Rerozepur Zhirka,,
Sohna,28.3241636,77.08486438023044
Nuh,27.99351765,77.04196338756515
Taura,29.6145803,79.4114542
FerozpurZirkha(Nagina),,
Mehsana(Mehsana Veg),,
Mehsana,23.601262849999998,72.37415155167554
Mansa(Manas Veg Yard),,
Porbandar,21.6409,69.611
"Ahmedabad(Fruit Market, Naroda)",,
Ahmedabad(Manekchowk),,
Keshod,21.31486295,70.26789366226589
Mangrol,21.1241507,70.1199203
Navsari,20.952407,72.9323831
Gondal,21.9575096,70.8009896
Gondal(Veg.market Gondal),,
K.Mandvi,22.8314482,69.35081
Dahod(Veg. Market),,
Bharuch,21.7080427,72.9956936
Deesa(Deesa Veg Yard),,
Deesa,24.2594977,72.1803348
Vadodara(Navapura),,
Vadhvan,,
Solan(Nalagarh),31.0366123,76.7104255
Solan(ChakkikaMor),,
Shimla,31.1041526,77.1709729
Shimla and Kinnaur(Rampur),,
Hamirpur(Nadaun),31.737951789572655,76.38764259014786
Chamba,32.692331550000006,76.16315522950366
Namhol(Bilaspur),31.2872674,76.8599682490877
Dhanotu (Mandi),31.5461,76.9087
Mandi(Mandi),31.65166165,77.00925418842219
Kangra(Jassour),,
Kangra(Baijnath),32.0498604,76.58777725
Kangra,32.0768665,76.29858720759783
Palampur,32.1095492,76.5359534
Jwalaji,34.02158645,74.994747515707
Kangra(Nagrota Bagwan),32.108298921730174,76.38874069543375
Dharamshala,32.2143039,76.3196717
Hoshiarpur,31.60929415,75.84597544153354
Mukerian(Talwara),31.951200200000002,75.89395755000001
Garh Shankar(Mahalpur),,
Garh Shankar,,
Mukerian,31.94205,75.6121906
Tanda Urmur,,
Phillaur(Apra Mandi),,
Phillaur,31.018294,75.7839116
Jalandhar City,31.3323762,75.576889
Nakodar,31.111861,75.4765718
Jalandhar City(Jalandhar),31.3323762,75.576889
Goraya,31.1208324,75.7787046
Tapa(Sadar Bazar),,
Kapurthala,31.38564755,75.30533042971072
Quadian,,
F.G.Churian,,
Dera Baba Nanak,32.0317917,75.0284641
Abohar,30.1450543,74.1956597
Jalalabad,29.5967449,78.3158684
Fazilka,30.3198406,74.1217943299535
Fazilka (Ladhuka),,
Sardulgarh,29.6934466,75.23753
Amritsar(Amritsar Mewa Mandi),,
Amritsar,31.6356659,74.8787496
Gehri,31.5093051,74.6620989
Nawan Shahar(Mandi Aur),,
Nawan Shahar(Subzi Mandi),,
Balachaur,31.0634777,76.2959789
Banga,31.1859373,75.9939111
Nawan Shahar(MandiRaho),,
Bhucho,30.2101095,75.0952797
Rampuraphul(Nabha Mandi),,
Maur,30.0661125,75.2298534
Talwandi Sabo,29.9838213,75.081768
Goniana,30.3391089,74.9326911
Nabha,30.3739948,76.1528674
Bassi Pathana,30.6896408,76.4042392
Khamano,30.8222288,76.3594199
Khanauri,29.8326902,76.113789
Moonak,29.8200935,75.8912372
Sunam,30.134004,75.8062777
Malerkotla,30.533129,75.8807604
Tarantaran,31.545307124116512,75.00547965498293
Patti,25.9496326,82.18113917212713
Bhikhiwind,31.3453907,74.6926546
Sadiq,30.7122762,74.580524
Kotkapura,30.5791768,74.8210744
Jaitu,30.469224,74.89196853122348
Morinda,30.7908462,76.4984505
Chamkaur Sahib,30.8971758,76.4116372
Talwandi Bhai,30.8582701,74.9300835
Mamdot,30.8695569,74.4228136
Guru Har Sahai,30.708855,74.4034695
Zira,30.971299,74.9881797
Makhu,31.1027381,74.9904064
Ludhiana,30.9090157,75.851601
Khanna,30.700625,76.2220763
Raikot,30.6496526,75.5993128
Kharar,30.7488437,76.6428994
Lalru,30.4797102,76.7944291
Malout,30.1890608,74.4994549
Bariwala,30.5377208,74.6534299
Sakaleshpura,12.9434349,75.7862318
"Binny Mill (F&V), Bangalore",,
Somvarpet,12.5971883,75.8466865
Gonikappal,,
Madikeri,12.42149,75.7387543
Mulabagilu,13.1626004,78.3958998
Srinivasapur,16.339774,78.0632794
Vashi New Mumbai,19.0615301,72.9702144985259
Amarawati,15.9964121,76.9597966
Amrawati(Frui & Veg. Market),,
Vadgaonpeth,,
Nagpur(Mahatma Phule Market),,
Nashik(Devlali),,
Osmanabad,18.28224535,76.05881660170444
Chandrapur(Ganjwad),,
Mangal Wedha,,
Jalgaon(Masawat),,
Indapur,18.1125305,74.92386542316771
Bhadrak,20.9854052,86.59342264863574
Keonjhar(Dhekikote),,
Angul,21.102538000000003,84.95368249418928
Sawai Madhopur,26.1137182,76.4240637330536
Udaipur(F&V),,
Nagour(FV),,
Jodhpur(F&V)(Bhadwasia),,
Ajmer(F&V),,
Jaipur(F&V),,
Thirurrangadi,,
Parappanangadi,11.0507863,75.86400024852765
Mukkom,11.3199783,75.9954873
New Market Aizawl,23.73442845,92.718970951572
Super Market Lungli (Bara Bazar),,
Nongstoin,25.572639449999997,91.25408026691981
Jowai,25.4434703,92.1973181
Khliehriat,25.2453874,92.31947708111298
Nongpoh (R-Bhoi),25.8989839,91.8812907
Sohra,25.2777336,91.7292416
Shillong,25.5760446,91.8825282
Manglaur,29.7921496,77.8760645
Navapara,20.4746422,81.3467002
Durg,21.1982964,81.40079215767969
Diglipur,13.22771435,92.93949249778723
Monday Market,8.2018261,77.3035401
Madurai,9.9261153,78.1140983
Dankaur,28.3501722,77.5533115
Javer,,
Bewar,27.2183955,79.2971696
Varanasi(F&V),8.704978791463532,77.76609448368593
Kannauj,26.9986675,79.69279463324783
Nagina,29.538422,78.51514669104847
Dhampur,29.241914350000002,78.50799012472027
Chaandpur,24.8517641,87.7998268
Rura,26.0319818,78.65339671629471
Bahedi,29.0350283,78.8849258
Mathura,27.4955539,77.6855554
Allahabad,25.4381302,81.8338005
Ajuha,25.7026986,81.2491912
Kayamganj,27.5525036,79.343542
Tilhar,28.0571981,79.74166887748461
Khair,27.9420637,77.842669
Aligarh,27.8761073,78.13581531245276
Charra,24.2406249,79.91752966461402
Tundla,27.2132859,78.2371117
Shikohabad,27.1037645,78.5881058
Amroha,28.79526315,78.34362444291719
Hasanpur,28.7227817,78.2826224
Chutmalpur,,
Shadabad,,
Kopaganj,26.0205442,83.5685545
Shahabad(New Mandi),,
Gorakhpur,26.6677977,83.364233378331
Sehjanwa,,
Bilsi,28.1402606,78.95495725274444
Ujhani,27.9951096,79.0153138
Anandnagar,18.4784152,73.8240754
Divai,10.2857993,76.336828
Gulavati,,
Ait,25.8932799,79.2418956
Jafarganj,24.7638229,87.9268026
Baraut,29.1560645,77.30640323368971
Khekda,,
Aliganj,27.4856878,79.08392083572213
Awagarh,27.4440366,78.4857649
Ganjdudwara,,
Etah,27.5550357,78.59922214449577
Muradnagar,28.7733808,77.5033582
Noida,28.5706333,77.3272147
Auraiya,26.65582145,79.51607566959635
Dibiapur,,
Milak,28.68025895,79.17218623982927
Pilibhit,28.4947158,80.1076121626605
Puranpur,28.5143487,80.1512946
Kairana,29.394447,77.2052786
Kadhle,,
Shamli,29.481150749999998,77.2901343874282
Khatauli,29.2738601,77.7374607
Shahpur,27.3835175,75.9624195
Naanpara,,
Ruperdeeha,,
Achnera,27.1771454,77.7575072
Jarar,26.8709631,78.5699336
Thakurganj,26.4274675,88.1289535
Kishanganj,26.29841435,87.94667148301295
Bettiah,26.8023,84.5074
Siwan,26.131008,84.39107448141786
Bhagalpur,25.286135350000002,87.13042293057262
Arwal,25.18128315,84.65966477186029
Baghry,,
Amloh,30.6115717,76.2316357
Puramattom,9.3896274,76.6523101
Kayamkulam(Alleppey),,
Sultan bathery,11.6631885,76.259553
Ernakulam,9.98408,76.2741457
Angamaly,10.1910284,76.3874109
Aluva,10.100414,76.356986
Mazhuvannur,11.7347967,75.987075
Thamarassery,11.418374700000001,76.01905971758696
Palayam,8.5030538,76.9500997
Attingal,8.6985965,76.8134401
Parassala,8.3428993,77.1547766
Aralamoodu,,
Madhavapuram,17.1244002,82.2812704
Mannar,9.3174015,76.5338634
Mattathur,11.0420981,76.02433657395625
Pariyaram,9.5410817,76.5859717
Chelakkara,10.6942894,76.3395838
Alathur,10.6458971,76.5436079
Pattambi,10.8048616,76.1780161
vadakarapathy,10.7775474,76.8505759
Adimali,10.0144274,76.9554575
Mehgaon,23.447325550000002,77.77116035836417
Semriharchand,,
LavKush Nagar(Laundi),,
Naugaon,20.10584075,86.20387914867212
Raisen,23.2675909,78.17271344991482
Aron,24.59121585,78.09553203500553
Guna,24.5001772,77.26009592641483
Mungawali,23.28694455,77.09867204728008
Chanderi,24.7119436,78.1372743
Ghansour,,
Hanumana,24.7915061,82.10517424171249
Gulabganj,24.126742,77.80377936922392
Kurwai,24.31479255,77.04196552748934
Vidisha,23.84630035,77.83702093017993
Sironj,22.977553800000003,75.94004057014743
Lateri,24.0619333,77.405817
Shamshabad,17.2611444,78.3931943
Garhakota,23.77899815,79.1530257012684
Katangi,22.649257900000002,80.39599789996271
Lalbarra,21.9435431,80.0508928
Dhar,22.578657200000002,75.22586367245644
Talikot,,
Armori,20.4711468,79.9794563
Gondpimpri,,
Nagbhid,20.5841998,79.6820032
Savali,21.34676915,76.59632748841406
Pithoura,26.2499605,87.1046104
Bhavarpur,,
Pandariya,22.685502749999998,80.34984029174615
Sarsiwan,,
Akaltara,22.0291459,82.422475
Baloda(Janjgir Campus),,
Shakti,11.9851078,79.8371484
Belargaon,,
Gattasilli,,
Boraee,,
Bhakhara,31.4115924,76.43263991623566
Kurud,20.5824924,79.9571227
Belarbahara,,
Narayanpur,19.5842032,81.1136985512029
Bemetara(Navagarh),,
Sambalpur (Bemetra),,
Saja,12.695482,75.1847273
Berla,23.8740849,75.6386804
Dharamjaygarh,,
Rajim,20.9684716,81.8796833
Ratanpur,25.3143027,86.5421536
Bilha,23.51040005,80.14582574378333
Takhatpur,23.58532905,80.86323976135024
Gaurella,22.7552845,81.9022405
Gurur,20.6829433,81.4016832
Dondilohara,,
Dondi,23.2904276,77.1770323
Balod,20.7277192,81.1446947513626
Kotba,22.433646,83.7396955
Bandhabazar,,
Gandai,21.6688285,81.1006134
Rajnandgaon,21.06844245,80.797077941564
Dongargarh,21.1851921,80.7612115
Kheragarh,26.90537045,77.61625833012062
Kharora,21.4004069,81.9263837
Navagaon,21.5920007,74.2448759
Pathriya,24.552173,77.75835160575127
Sargaon,26.0709311,74.7396254
Munguli,,
Khamhariya,24.61742845,81.29331716406588
Purulia,23.2020967,86.32289877475208
Zaloosa-Chararishrief (F&V),,
Mancharial,,
Hoshangabad,22.743060999999997,77.71893384853229
Multai,21.7828449,78.263508
Sehore,23.115004149999997,77.06653558236647
Narsinghgarh,23.709099,77.088747
Biaora,23.1892675,75.92277489938922
Mandsaur,24.2628148,75.38569204340352
Khargone,21.9544729,75.75212476982438
Indore(F&V),,
Sendhwa,21.69268125,75.09787918662204
Badnawar(F&V),,
Kukshi,22.2124514,74.75988058533804
Damoh(F&V),,
Ratlam(F&V),,
Babain,30.08749505,76.99026886615735
Rania(Jiwan nagar),,
Rania,29.569683599999998,74.7337535170843
Jundla,29.6510043,76.8711255
"Kalol(Veg,Market,Kalol)",,
Dholka(Market Yard Veg),,
Ahmedabad,23.0215374,72.5800568
Ahmedabad(Rajnagar sub yard),,
Anand,22.5586555,72.9627227
Petlad,22.4770467,72.8003365
"Anand(Veg,Yard,Anand)",,
Songadh,21.1702124,73.5622874
Jhalod,23.1006273,74.1560018
Shimla and Kinnaur(Theog),,
Rohroo,,
Shimla and Kinnaur(Nerwa),,
Kullu(Chauri Bihal),,
Mandi(Takoli),,
Chail Chowk,,
Santoshgarah,,
GarhShankar (Kotfatuhi),,
Hoshiarpur(Sham Churasi),,
Mehatpur,24.0736847,76.08868993315164
Bilga,30.8107439,75.9846488
Noor Mehal,31.12780465,75.47464634384174
Bhadaur,30.4763027,75.329823
Bhulath,31.5557554,75.48838277185357
Bhulath (Nadala),,
Bhulath (Ibrahimaaaaval),,
Dhariwal,31.952066,75.3217361
Kalanaur,28.796834349999997,76.4581617677851
Majitha,31.7565085,74.9567976
Mehta,22.629956149999998,79.8565538972566
Chogawan,31.6634635,75.1222372
Gehri(Jandiala mandi),,
Ahmedgarh,30.6772118,75.8258147
Khadur Sahib(Fetehabad),,
Khadur Sahib,31.4241739,75.0982026
Naushera Pannuan,,
Harike,31.1674771,74.944863
Nihal Singh Wala,30.5896671,75.2805144
Samrala,30.8368764,76.1913755
Doraha,30.7988727,76.0372906
Panvel,18.991097099999998,73.12058456241039
Hingna,21.0751769,78.9683723
Parshiwani,,
Kalmeshwar,21.2374393,78.9081689
Ratnagiri (Nachane),16.99598615426907,73.33484680838913
Akluj,17.8930069,75.0204482
Bhusaval,21.0472554,75.7880594
Pune(Moshi),18.6879806,73.8343544
Palthan,24.0928773,74.8574817
Khairthal,27.7978292,76.6417499
Alwar,27.414004849999998,76.61703869600933
Kama,25.1411278,75.3737211
Chomu(F&V),,
Kaliyanchanda,,
Chalakudy,10.3041869,76.3371037
Pazhayannur,10.651222449999999,76.4053969319047
Tiphra,31.4397947,77.3215198
Sheoraphuly,22.7710582,88.32078017404632
Chhibramau(Kannuj),,
Rasda,24.874815249999997,80.99961176378517
Shahganj,26.018643849999997,82.6172019492906
Mohammdi,27.923875549999998,80.16389939482956
Mohamadabad,,
Naugarh,27.2751558,83.0882093
Kasganj,27.788852749999997,78.8229700885066
Kutumba,24.62667415,84.28403565356012
Buxur,,
Murliganj,25.876445150000002,86.93693404301774
Balliah,,
Mokokchung Town,26.3238761,94.5214104
Pfatsero,,
Roing,28.1368472,95.8430824
Pasighat,28.0589676,95.3324944
Khonsa,26.9910099,95.5061065
Along,28.1698002,94.79854
Bumhama-Kupwara (F&V),,
Ashahipora (Anantnagh),,
Vessue,,
Chintapally,17.389307,78.3981838
Dhone,15.3969719,77.8718482
Punganur,13.404283450000001,78.55670218508777
Jainath,19.73276,78.6426862
Shankarapally,,
Prithvipur,25.3328555,78.7175989
Haatpipliya,,
Shujalpur,23.3805757,76.7232104
Badwaha,25.0941883,79.7003174
Mahidpur,24.7630436,77.7075862
Porsa,26.683145600000003,78.38805449474017
Dhar(F&V),33.1854313,75.5695653
Burhanpur,21.33486695,76.37088027832233
Jaora,23.6379392,75.1281756
Sampla,28.819218900000003,76.76090328664893
"New Grain Market , Panchkula",,
Dholka,22.726607,72.4411863
Damnagar,22.1453429,69.3467448
Dhari(Chalala),,
Dhari,21.3280712,71.0262213
Godhra,22.7785001,73.6245157
"Patan(Veg,Yard Patan)",,
Bardoli,21.1338291,73.1053896
Nizar,21.476998,74.1958106
Rajkot(Veg.Sub Yard),,
Rapar,23.570746,70.6450466
Kathlal,22.8985648,72.9908519
Limdi,23.0088063,74.156127
Rangpo,27.1744361,88.5303403
Dharampur,30.9004365,77.0247842
Solan(Rajgarh),30.90763885530148,77.10465288861245
Sirmour(sarahan),,
Rayya,31.5400094,75.2320334
Anandpur Sahib,31.2299862,76.5005778
Channapatana,,
Hunsur,12.3035086,76.2928095
Santhesargur,,
T. Narasipura,12.2134628,76.9027763
Jagalur,14.4696366,76.3538237
Channagiri,14.0252,75.925
Honnali,14.2389785,75.6457434
Maddur,12.5848984,77.0448679
Nagamangala,12.8196077,76.7542189
Sringeri,13.4261724,75.255369
Koppa,13.533207,75.3633986
Moodigere,,
Humanabad,17.7715078,77.1393693
Hosanagar,13.9166601,75.0631116
Thirthahalli,13.347051048063499,74.77379636013866
Sorabha,,
Kollegal,12.1560966,77.1071726
Jamakhandi,16.503896,75.2910386
Mundgod,14.9715262,75.0413079
Sirsi,14.6192362,74.8388611
Holalkere,14.0428326,76.1844875
Hiriyur,13.9443237,76.6167407
Hospet,15.266493,76.3872297
Hirekerur,14.4562395,75.3952205
Puttur,12.7632858,75.2018421
Sulya,12.5576644,75.3907575
Turvekere,,
Morshi,21.3416664,78.0140337
Palus,17.0449956,74.43658327277768
"Sangli(Phale, Bhajipura Market)",,
Islampur,26.2563651,88.1860517
Junnar(Narayangaon),19.1226814,73.9706925
Padampur,29.7093806,73.62449
Godabhaga,21.4188842,83.8349318
Bargarh,21.2319922,83.5652737033866
Kuchinda,21.7477388,84.3506401
Chandigarh (F&V),,
Chandigarh(Grain/Fruit),,
Kalpetta,11.6136614,76.0851692
Pulpally,11.7932652,76.1643871
Kothamangalam,10.13328035,76.73612208673686
Koovapadi,,
Chala,8.4829946,76.9502995
Kodumgalloor,,
Kodungalloor,10.2269615,76.19840495
Malampuzha,10.8190998,76.6652482
Vithinasserri,,
Bachaibari,,
Santir Bazar,,
Manubazar,23.0668626,91.6445223
Boxonagar,,
Melaghar,23.4947164,91.3300645
Chowmanu,,
Gauripur,26.0865358,89.964662
Pamohi(Garchuk),26.10278390961652,91.68492992969199
Silapathar,27.5893833,94.7255857
Ampati,25.4704958,89.9367062
Chakrata,30.7013248,77.8703356
Tanakpur,29.0673789,80.1094626
Jagdalpur,19.0870758,82.0235715
Salihabhata,,
Car Nicobar,9.187057,92.7730136148387
Koyambedu,13.0734496,80.1948363
Bolpur,23.661154,87.6962424
Katwa,23.644278,88.1287333
Asansol,23.6871297,86.9746587
Dinhata,26.1279625,89.4631456
Baxirhat,,
Midnapore Sadar,,
Karsiyang(Matigara),,
Siliguri,26.7164127,88.4309916
Balurghat,25.2234352,88.7780654
Bishnupur(Bankura),23.0757335,87.3146343
Falakata,26.60071835,89.12808738999217
Alipurduar,26.4851573,89.5246926
Kaliaganj,,
Safdarganj,26.9143164,81.3616885
Nawabganj,26.92313685,81.20825583419168
Karnailganj,,
Varanasi(Grain),,
Mirzapur,24.9316896,82.62801628419575
Chitwadagaon,,
Tikonia,29.2233771,79.5305091
Basti,26.838708349999997,82.53509190101042
Bharthna,,
Golagokarnath,,
Shahjahanpur,27.9128583,79.74762537616267
Puwaha,,
Payagpur,27.3990446,81.7925593
Dhanura,20.3536821,78.1678899
Baruwasagar,,
Sahiyapur,,
Mau,26.03909045,83.49858462133619
Hardoi,27.336997750000002,80.09982319183257
Utraula,27.2389916,82.39618447256098
Mehrauni,,
Chorichora,,
Shahaswan,,
Wazirganj,24.78306585,85.19489741334286
Gadaura,,
Nautnava,,
Viswan,9.25791195,76.41430386283423
Bagpat,23.4305284,69.2124939
Bahadurpur (Ekmi Ghat),,
Jainagar,26.5882487,86.1402809
Narkatiaganj,27.096888149999998,84.4585344292079
Dumarao,,
"Pateri Belchar Mandi, Bhagwanpur block",,
Biharsharif,25.20383185,85.52413404903118
Harnaut,25.3716815,85.5406184
Naugachiya,25.3857731,87.0997616
Mohana,19.4212481,84.2760490424239
Raniganj,23.6030452,87.1193786
Saharsa,25.83307565,86.61437508111757
Tuensang,26.23421065,94.74155301538642
Longleng,26.58393145,94.80454811417482
Tuli,26.649242299999997,94.65638939888001
Mangkolemba,26.43516705,94.41144146569589
Ghathashi,25.8580674,94.38234179008754
Zunheboto,26.01238025,94.51237194730331
Wokha Town,26.0962958,94.2544489
Kipheri,,
Naginimora,26.834812749999998,94.87129864521361
Niuland,25.850495549999998,93.91800185873757
Dimapur,25.904137849999998,93.7177608788519
Kohima,25.6618755,94.1019156
Jalukie,25.619316949999998,93.72838157485259
Naharlagun,27.1308555,93.709712
Kulgam,33.6446899,75.0188432
Kanispora Baramulla (F&V),,
Nowpora,33.7943109,74.9167735
Tral,33.9853957,75.14710951367799
Shopian,33.72078365,74.77142439698211
Pulwama (F&V),33.8756947,74.9003129
Amadalavalasa,18.3999053,83.86063712402112
Palakonda,18.6036798,83.7559931
Srikakulam,18.2949307,83.8938844
Narsipatnam,17.6711811,82.6124371
Paderu,18.0791533,82.6632234
Visakhapatnam,17.6935526,83.2921297
"A.A.Nagar,Kurnool,RBZ",,
Adoni,15.6261417,77.2723701
Allagadda,15.1333484,78.51254
Kurnool,15.8309251,78.0425373
Kurnool(Rythu Bazar),,
Mangalagiri,16.4318209,80.5688069
Guntur,16.2915189,80.4541588
Parvathipuram,18.783186,83.4278759
Vuyyur,,
Nandigama,16.7734733,80.2855279
Jaggayyapeta,16.8930111,80.098646
Gudiwada,19.056391127806176,79.54568430553535
Mylavaram,16.7612039,80.6418168
Pamarru,16.3226443,80.9605914
Vijayawada,16.5115306,80.6160469
Palamaner,13.149037450000002,78.72927628048504
Chittor(Rythu Bazar),,
V.Kota Mkt.Yard,,
Chittoor,13.202648400000001,79.00322534350747
Kakinada,16.9437385,82.2350607
Ravulapelem,,
"Eluru(P.Sri.Mkt),RBZ",,
"Eluru-II,RBZ",,
Eluru,16.7104257,81.1153816
Ongole(Rythu Bazar),,
Miryalguda(Rythu Bazar),,
Venkateswarnagar,,
Mahboob Manison,,
Erragadda(Rythu Bazar),,
Laxettipet,,
Chinnoar,,
Sathupalli(Rythu Bazar),,
Sadasivpet(Sangareddy),17.6211902,77.9503264
Sadasivpet,17.6211902,77.9503264
Sangareddy,17.8684342,77.82271887720601
Siddipet(Rythu Bazar),,
Gajwel,17.8456745,78.6828741
"Siddipet Town,RBZ",,
Karimnagar(Rythu Bazar),,
Nizamabad,18.6732693,78.0978477
"Kukatpally,RBZ",,
Vikarabad,17.2702855,77.74529700637382
Ibrahimputnam,,
Kukatpally(Rythu Bazar),,
Mehndipatnam(Rythu Bazar),,
Chevella,17.3062296,78.1370079
"Ramakrisnapuram,RBZ",,
Kalwakurthy,16.6721316,78.4880729
Shadnagar,17.0671702,78.2045948
Mahbubnagar,16.7434538,77.9923191
Dewas(F&V),,
Nalkehda,,
Indore,22.7203616,75.8681996
Morena,26.3849794,77.8612721274346
Sihora(F&V),,
Behal,31.4260357,77.0003843
Jui,19.0120315,73.080156
"New Grain Market(main), Karnal",,
Gharaunda,29.5394114,76.93889368595899
Vijapur(veg),,
Dharampur(veg),,
Bhanvad,21.9333303,69.7984765
Viramgam,23.1224522,72.0483946
Dholka(Koth),,
Talalagir,,
Talala,21.0560298,70.5303798
Kodinar,20.7971703,70.6957211
Babra,21.8485451,71.3036656
Khambhat,22.3166806,72.6243126
Khambhat(Veg Yard Khambhat),,
Anklav,22.3775417,73.0021216
Borsad,22.4094019,72.905252
Vankaner(Sub yard),,
Valod(Buhari),,
Vyra,,
Mandvi,22.8314482,69.35081
Bardoli(Katod),,
Prantij,23.4372086,72.8518061
Morbi,22.800395899999998,70.88623203876728
Dhoraji,21.7220402,70.4443401
Amod,24.313183799999997,73.4121592930642
"Mehmadabad(Veg ,market)",,
Melli,27.0901478,88.4577114
Solan(Banalgi),,
Shimla and Kinnaur(Koti),,
Jalandhar City(Faintan Ganj),,
Sri Har Gobindpur,,
Goniana(Mehma Sarja),,
Bhagta Bhai Ka,30.4834552,75.0959277
Bagepalli,13.7834423,77.7960577
Bhalki,18.0369776,77.25636233407741
Bijapur,18.7935679,80.815939
Belgaum,15.8572666,74.5069343
Sankeshwar,17.28587714790912,74.1860109146323
All India Cottonseed Crushers Association,,
Pen,18.735385,73.0868161
Rahuri(Songaon),,
Kopargaon,19.8370037,74.4829123387482
Ghoti,21.63088245,78.88006806686857
Manmad,20.2519828,74.4392286
Nampur,20.7295457,74.3109024
Kinwat,19.57746895,78.24400876748888
Murbad,19.257118,73.3907493
Shahapur,20.981235499999997,77.89001024878027
Kurdwadi,,
Dound,,
Junnar,19.2094471,73.8771937
Ghatanji,20.01938115,78.27466612781433
Dungurapalli,,
Pandkital,,
Jhumpura,21.888042400000003,85.58606055418386
Bargarh(Barapalli),,
Attabira,21.4468176,83.76717467150976
Sohela,21.31052585,83.36670220838764
Mottagaon,,
Kamakhyanagar,20.9329215,85.5416343
Sarankul,20.009967850000002,85.13817247317476
Bahadajholla,,
Barikpur,20.9903422,86.4187198
Nilagiri,21.463098799999997,86.74437523113414
Khunthabandha,,
Kasinagar,22.4428902,88.5313169
Nimapara,20.0668733,85.990804
Puri(Brahmagiri),19.7992511,85.666893
Sakhigopal,19.9427763,85.8160362
Gabadkunda,,
Tileibani,21.545604,84.6057171
Athagarh,20.51614495,85.62711588465648
Gosala,16.4507829,80.7461245
Jatni,28.7092586,78.8555288
Jagatsinghpur,20.2593872,86.1660878
Tusura,20.4865534,83.4851128
Bolangir(Patnagarh),,
Sahidngar,,
Anandapur,21.33341315,86.08721473627995
Keonjhar(Jhumpura),,
Champua,22.00580135,85.58517122411192
Saharpada,,
Kendrapara(Marshaghai),,
Chatta Krushak Bazar,,
Pattamundai,20.5626441,86.59080686954783
Kendrapara,20.5475164,86.5296168190126
Gopa,18.9812986,76.8319201
Angul(Atthamallick),,
Janta Market,30.92560143318349,74.61986479451258
Pala,20.83315395,77.70479670095003
Champhai,23.54437435,93.34795058148227
Lungli,,
Hailakandi,24.6846916,92.5645836
Dhekiajuli,26.7301754,92.47850677569255
Goalpara,26.04918765,90.60018585947726
Srirampur,22.7549951,88.3416672
Kushtoli,,
Dibrugarh,27.4844597,94.9019447
Dadengiri,25.7616516,90.2201182
Mawkyrwat,25.38569835,91.34601476049679
Gasuapara,25.2283918,90.36036514247702
Baghmara,23.789329,86.2041444
Williamnagar,25.506085,90.60381
Tamluk (Medinipur E),22.2896984,87.9255933
Egra/contai,,
English Bazar,25.0057449,88.1398483
Gajol,25.2158916,88.1933032
Durgapur,23.5350475,87.3380425
Uluberia,22.4700318,88.1011108
Howrah,22.5736296,88.3251045
Toofanganj,,
Mathabhanga,26.3643908,89.1994116
Mekhliganj,26.3451783,88.9078861
Haldibari,26.3352821,88.782474
Garbeta(Medinipur),22.844463,87.3209023
Medinipur(West),22.2788943,87.92227864380936
Matigara,26.7207929,88.3842051
Gangarampur,25.4070884,88.516124
Gangarampur(Dakshin Dinajpur),25.4070884,88.516124
Sealdah Koley Market,,
Kasipur,15.8635171,78.10112
Balarampur,23.11452925,86.22575960593565
Pandua,23.0751399,88.2828926
Moynaguri,,
Belacoba,26.5796846,88.5975648
Dhupguri,26.58672445,89.01047853554655
Falakata(Dhupguri),,
Moynaguri(Dhupguri),,
Jalpaiguri Sadar,26.52887985,88.72604609962299
Ranaghat(Kalyani),,
Ranaghat,28.18817,94.7667
Kalyani,22.9749723,88.4345915
Chakdah,23.065379450000002,88.53006249351263
Pukhrayan,26.2269466,79.8397679
Charkhari,25.414942850000003,79.74949384566796
Muradabad,21.023621,76.57793453010419
Rampur,28.7934728,79.18458064228349
Billsadda,,
Jagnair,,
Biraul,25.9565302,86.1801131065815
Benipatti,26.44347305,85.9104805719261
Jahajharpur,,
Madhubani,26.3503076,86.22964236520482
Birpur,25.526797199999997,86.09499043645195
Brahmpur,25.8826239,86.2466669
Sitamarhi,26.5942841,85.500428
Mansi Mandi,,
Khagaria,25.4930513,86.69822644137813
Tekari,21.9646276,80.1514336980459
Lakhisarai,25.154393849999998,86.17449589670395
Surjyagarha,,
"Parsoniya Mandi, Mahua block",,
"Jaitipir Mandi, Lalganj block",,
Bhagwanpur Mandi,,
Kaswa,18.323469,78.338386
Gulabbagh,,
Munghair,,
Barari,25.455907449999998,87.42854911370397
Barsoi,25.6206132,87.97442347496235
"Gerabari, Korha Block",,
Katihar,25.5586421,87.64571962485962
Singheswarsthan,,
Begusarai,25.5125411,86.08833919362361
Gopalganj,26.42111655,84.37391327996377
Maharjganj,,
Nokha,27.5552713,73.4755961
Sasaram,24.9509656,84.0148733
Tajpur,25.8594772,85.66133178026229
Bihpur,25.39435845,86.93725579415423
Aarah,,
Jamui,24.75625135,86.30111278381085
Motihari,26.6506888,84.9114654
Madhuban,24.0060818,86.1490232
Raxaul,26.9868738,84.8447219
Arreria,,
Forbesganj,26.27836065,87.29875647084894
Rajauli,24.6342632,85.56094982770526
Nawada,24.817324900000003,85.51790846584018
Amarpur,23.5155013,91.6548554
Rajaun,25.02915045,87.0030494237578
Barahat,24.88692315,87.02964487850093
Jehanabad,25.15295785,85.00650426458421
Mokama,25.3958052,85.9220644
Saraikela,22.7464225,85.91689291046393
Jamtara,23.9801639,86.92436369630936
Deoghar,24.4898318,86.6990182
Sahebganj,25.032043700000003,87.69176396030268
Pakur,24.53259085,87.59323197586771
Sambal,31.7031601,77.0292234
Narasannapet,,
Tekkali,18.6084345,84.2310948
Kanchili,18.977403,84.5809002
Pathapatnam,18.7487284,84.0888676
Sompeta,18.9424871,84.5839641
Kothabommali,,
Rajam,18.4497559,83.6564679
Hiramandalam,18.6782742,83.9454797339904
Ponduru,18.362788,83.7767868
Chodavaram,17.8296788,82.9344845
Yellamanchili,17.5464898,82.8564262
Bhimunipatnam,17.890797900000003,83.45579236958764
Atmakur,14.669176,79.57436134963191
Yemmiganur,15.745496549999999,77.51104533701687
Nandyal,15.4736293,78.4806592
Nandikotkur,15.8562,78.27
Banaganapalli,15.3223031,78.2507163
Koilkunta,,
Krosuru,16.5431638,80.1391051
Narasaraopet,16.2389242,80.0472879
Chilakaluripet,16.0949502,80.1658779
Ipur,,
Tenali,16.2377735,80.6464219
Repalli,15.547683,78.0802823
Vinukonda,16.0506568,79.7477201
Tadikonda,16.4183389,80.4546278
Macharla,16.0841931,77.5450179
Ponnur,16.0683776,80.5522462
Sattenapalli,16.4049995,80.1529972
Pidugurala(Palnadu),,
Kuchinapudi,15.9621623,80.7488726
Bapatla,15.9346161,80.38697056600418
Duggirala,16.328919,80.6238497
Sullurpet,,
Rapur,14.2008674,79.5332484
Atmakur(SPS),,
Naidupet,13.92891785,79.83270936177463
Udayagiri,14.9383009,79.31135792239665
Vakadu,13.93882855,80.17034426720501
Nellore,14.4493717,79.9873763
Gudur,14.14695235,79.84780242785101
Kavali,14.9135846,79.9926902
Venkatagiri,13.957582,79.5809332
Kovur,14.5036085,79.9868404
Pusapatirega,18.08542935,83.58501346192723
Vijayanagaram,18.1141255,83.4114389
Chipurupalli,17.2178911,81.7293651
Saluru,18.517553,83.2050385
Kurupam,18.8661101,83.5541837
Kothavalasa,17.8958429,83.1837095
Malleswaram,13.0027353,77.5703253
Movva Hqs,,
Tiruvuru,17.1132968,80.6107396
Gannavaram,16.5561295,80.7961511
Machilipatnam,16.1817369,81.1348181
Kanchekacherla,,
Kalidindi,16.48868265,81.30040627372341
Divi,17.93336395,83.47862960197517
Kaikaluru,16.58832565,81.2919326442128
Kuppam,12.7452259,78.344331
Pakala,13.4490487,79.1148903
Srikalahasti,13.79001935,79.64493834363074
Rompicherla,16.2104931,79.9091632
Nagalapuram,13.41222555,79.80792411192989
Thottambedu,13.791613550000001,79.73880163582753
Prattipadu,16.4175037,81.0651058
Nagaram,17.4891828,78.6017275
Mummidivaram,16.6442012,82.1078853
Samalkot,17.0453164,82.1689895
Sampara,16.9089267,82.1058532
Ramachandrapuram,13.5222607,79.3866201786105
Pithapuram,17.1133426,82.2543331
Tellarevu,,
Tuni,17.3614675,82.5467956
Mandapeta,16.8634704,81.9300945
Alamuru,16.7884807,81.8844863
Karapa,16.88868545,82.17014100668757
Peddapuram,17.0756736,82.1433164
Kothapeta,16.71512,81.89671
Anaparthy,16.900486,81.97517448016477
Ambajipeta,16.6067176,81.94786827578494
Razole,16.4763891,81.8390689
Jaggampet,17.8265579,78.1541876
Achanta,16.604225,81.8069411
Akiveedu,16.5827599,81.3819996
Bhimavaram,16.5427689,81.527344
Bhimadole,16.8103306,81.2643061
Undi,16.5856693,81.4577972
Attili,16.671648599999997,81.60130332519094
Gopalavaram,15.3341606,79.7517783
Polavaram,17.32335525,81.57770789369067
Penugonda,16.6539593,81.744602
Denduluru,16.7817255,81.1807255
Tanuku,16.75414,81.685839
Chintalapudi,17.097628450000002,80.96370110172502
Narsapuram,17.4453781,82.9103236
Ungatur,,
Tadepalligudem,16.8102437,81.526592
Palakole,,
Rayadurg,14.7181496,76.88797388103569
Guntakal,15.163811,77.3761354
Kalyandurg,14.5517958,77.1119702
Madakasira,13.9405457,77.272588
Penukonda,14.0846808,77.5966537
Gooti,,
Dharmavaram,14.4138405,77.7208432
Kamalapuram,11.78229975,78.06308651088307
Rajampet,14.1935867,79.1585757
Badvel,14.7433614,79.0610394
Mydukur,14.859373399999999,78.77152394961809
Lakkireddipally,,
Koduru,17.5855651,82.7365805
Siddavatam,14.4682526,78.9634519
Rayachoti,14.0555217,78.7510163
Jammalamadugu,14.8473457,78.382172
Proddatur,14.7555953,78.5501531
Addanki,15.8110285,79.9737896
Markapur,15.7406698,79.2698502
Ongole,15.5058714,80.0499454
Maddipadu,15.6208452,80.0225194
Podili,15.6060134,79.6114995
Cumbum(AP),15.5862083,79.1148164
Parchur,15.9696311,80.2753189
Martur,17.199742,76.9022155
Kondapi,15.41515665,79.83048451373264
Giddalur,15.3784042,78.9265231
Darsi,15.7694505,79.6776541
Kandukur,15.221981450000001,79.9065214731936
Kanigiri,15.4064336,79.5066283
Chirala,15.8361517,80.3636644
Venkateswarnagar(Chintapalli),,
Devarkonda(Mallepalli),,
Ramannapet,18.7210763,78.9006158
Nidamanoor,16.8215148,79.3651133
Huzurnagar,16.9003733,79.8745838
Chityal,17.2314588,79.1293471
Thungathurthy,17.4135938,79.5871429
Choutuppal,17.2526027,78.8964038
Kodad,16.9947802,79.9749826
Halia,25.4948439,73.9669132
Miryalaguda,16.8710119,79.5617353
Voligonda,,
Devarakonda,16.6931795,78.9147252
Neredcherla,16.8870753,79.6934155
Aler,17.645634,79.0489037
Mothkur,17.42783285,79.2642694009113
Voligonda(Ramannapet),,
Bhongir,17.5172789,78.8863383
Nakrekal,17.1647574,79.4274007
Chandur(Mungodu),,
Nalgonda,16.8579636,79.21749353315548
Devarkonda(Dindi),,
Chandur,18.54396,77.98344728534863
Tirumalagiri,17.4746717,78.5069513
Sarangapur,19.0398413,78.7223074
Kagaznagar,19.401042949999997,79.43454087965227
Indravelly(Utnoor),,
Asifabad,19.3593461,79.2960404
Ichoda,19.4286536,78.4528573
Adilabad,19.6759452,78.5339895
Jainoor,19.3756889,78.9082288
Nirmal,19.091520950000003,78.39660898429065
Bhainsa,19.107085,77.9635656
Khanapur,15.639879,74.5088917
Bhadrachalam,17.6688019,80.8940083
Nelakondapally,17.073074,80.05363533760215
Burgampadu,17.6438002,80.8694168
Dammapet,,
Kothagudem,17.5512916,80.6144535
Charla,27.7206169,74.2966666
Wyra,17.1936232,80.3594327
Kallur,15.7997394,78.0316912
Sattupalli,,
Madhira,16.9234629,80.3629315
Enkoor,17.3284346,80.4406512
Narsapur,17.7384006,78.279637
Siddipet,18.005585099999998,78.89611304969961
Ramayampet,18.1163712,78.4307212
Dubbak,18.1737336,78.6657035
Zaheerabad,17.679403,77.6153076
Medak,17.9375095,78.21174498510584
Jogipet,17.8659936,79.8773217
Togguta,,
Narayankhed,18.0347921,77.7772967
Dharmaram,17.9584619,79.6546532
Gopalraopet,18.7389293,79.2279432
Jammikunta,18.2897332,79.4739441
Jagtial,18.82135895,78.91506632525903
Ibrahimpatnam,17.1952924,78.6508564
Husnabad,18.1266495,79.2111468
Pothgal,18.3058109,78.7194978
Kataram,18.6275596,79.938122
Mallial(Cheppial),,
Medipally,16.9993165,78.6459303
Manakodur,,
Gollapally,17.9241077,78.5879946
Sultanabad,18.5279573,79.3192023
Dharmapuri,12.14561305,78.11322171666458
Peddapalli,18.62065305,79.49501710882896
Huzzurabad,,
Kathalapur,18.7495555,78.6866207
Pudur,11.3913866,77.7629824
Gangadhara,18.5888465,79.0099528
Koratla,19.662698,78.527535
Manthani,18.6512469,79.665771
Vemulawada,18.4674786,78.8699
Metpally,18.1836339,78.9031206
Sircilla,18.3897573,78.8085973
Choppadandi,18.5773287,79.1675524
Bichkunda,18.401589,77.7077969
Madnoor,18.5021779,77.6251363
Armoor,18.7904482,78.2907202
Banswada,18.3821084,77.8763494
Bodhan,18.6536941,77.8936802
Birkur,18.522955914621964,77.79483069912149
Bhiknoor,18.1678992,78.0435026
Kammarpally,18.8318996,78.5069181
Yellareddy,18.2136013,78.03238754485734
Sadashivnagar,18.4104291,78.2743169
Kotagiri,11.4230431,76.8658211
Varni,18.53257,77.8958328
Kamareddy,18.316551,78.05393808043348
Velpur,18.7651179,78.3932958
Pitlam,18.2232522,77.8239617
Gandhari,19.879599749999997,76.60463122261837
Cherial,17.9239547,78.9690304
Kesamudram,17.6903072,79.8971365
Thorrur,17.582996,79.6589492
Kodakandal,,
Dornakal,17.4419208,80.1516156
Narsampet,17.9305758,79.893639
Wardhannapet,17.7733267,79.5761394
Narsampet(Nekonda),,
Mulugu,18.31453475,80.3458815996114
Mahabubabad,17.7138983,80.04134252767227
Ghanpur,17.80619035,79.38344899914316
Jangaon,17.746584300000002,79.24072182693956
Parkal,18.1980527,79.7010375
Medchal,17.6339929,78.4843146
Sardarnagar,22.8533634,77.89399502238255
Tanduru,17.2575144,77.5874075
Pargi,17.1685198,77.8797905
Achampet,16.3999846,78.6379866
Gadwal(Lezza),,
Amangal,16.8497797,78.5325679
Nagarkurnool(Talkapalli),,
Kosgi,16.9884481,77.7164865
Gadwal,16.2347032,77.7946371
Wanaparthy Road(Prbbair),,
Devarakadra,16.6198982,77.8424403
Wanaparthy Road,17.40382765,78.47218950021957
Kollapur,16.1061268,78.3194833
Alampur,15.8799583,78.1350753
Narayanpet,16.700551750000002,77.61648447017446
Badepalli,16.7568586,78.1444001
Wanaparthy town,16.3617799,78.0610836
Makthal,16.5010823,77.5133174
Lahar,26.204846099999997,78.94535206073283
Jatara,25.01113205,79.06162499064969
Niwadi,26.1864624,76.5328216
Bichhiya,23.223546650000003,81.65902671836808
Saunsar,21.6665992,78.8153815
Amarwda,,
Karera,25.45155595,78.14112423353612
Pichhour,,
Shivpuri,25.374121549999998,77.82788660942335
Kolaras,25.22324725,77.61819483286055
Khatora,24.21455915,78.65408333715249
Magroni,25.7000872,77.9335784
Tendukheda,23.396631,79.5408078
Gotegaon,23.257080449999997,79.07488560047776
Kannod,22.6657762,76.74867050800239
Banapura,22.470483,77.4816889
Babai,22.1997769,78.95267955503239
Bankhedi,22.7747128,78.533444
Bakswaha,24.6602262,79.3992912
Badamalhera,,
Rajnagar,26.3859638,86.15420075198816
Maksudangarh,24.06683505,77.24315360928962
Kumbhraj,24.36719705,77.04992847251594
Pawai,24.00883055,77.86144372746327
Berasia,23.629923249999997,77.42516858576555
Isagarh,24.133296,77.39384405880776
Kotma,23.3213033,81.38365964709814
Baktara,,
Rehati,25.7939493,83.3794874
Jawar,21.9278082,76.45020234985176
Ashta,21.66199185,78.16874868605589
Khirakiya,22.1534084,76.88216120134791
Dindori,22.9070871,80.88469235570068
Palari,22.0409034,79.5209573676484
Lakhnadon(F&V),,
Chhpara,,
Lakhnadon,22.6011662,79.609125
Rewa,24.75608455,81.38105738502682
Bhander,25.728760049999998,78.74892020938377
Sevda,24.7569536,78.7854268
Praswada,,
Balaghat(F&V),,
Khairlangi,21.609881549999997,79.98659633989794
Mohgaon,21.940767700000002,79.05628629932696
Manasa,23.30540635,74.77155844769155
Ambaha,,
Banmorkalan,,
Balwadi,21.696535400000002,75.56311866226523
Alirajpur,22.28595245,74.35456282607561
Pandhana,21.6908945,76.22379157033814
Paatan,,
Sehora,22.9968389,77.7518904
Sihora,23.80230875,79.34923605257535
Sheopurbadod,,
Pai,22.47181165,75.95534163042294
Pundri,29.7607616,76.5590514
Kaithal,29.7996588,76.3989903
Pai(Rajaund),,
Pehowa(Gumthala Gahru),,
Pipli,23.38530585,76.86566423182951
Rewari,28.1956468,76.6165179
"New Grain Market , Sonipat",29.146674500000003,76.68497625256688
"New Grain Market , Jind",29.412923550000002,76.66408407265092
Pillukhera,,
Jullana,,
Uchana,29.4884284,76.14812129557609
Ding,29.4600814,75.2618433
"New Grain Market , Sirsa",29.444531650000002,74.66058329416578
"New Grain Market , Faridabad",,
"New Grain Market , Bhiwani",28.7881623,76.12364852992562
Panchkula,30.6975401,76.8551066
Panipat(Baharpur),,
Madlauda,29.4022237,76.8032637
"New Grain Market , Ambala",,
Naneola,30.2547035,76.5723159
Mullana(saha),,
Beri,28.719358149999998,76.55304917334342
Bhattu Kalan,29.3875946,75.3418112
Dharsul,,
Nigdu,,
Tarori,,
Nilokheri,29.8321793,76.83909880793878
Narnaud(Bass),,
Chhachhrauli(Khizrabad),,
Ahwa-Dang,20.7587262,73.6873533
Dehgam(Rekhiyal),,
Randheja(Chiloda),,
Kalol,23.2452165,72.4966223
Dehgam,23.16403255,72.88183192392184
Sanad,31.6585125,77.3139379
Mandal,23.2883831,71.9178854
Bavla,22.8278859,72.3684741
Visavadar,21.3417058,70.7534299
Mahuva(Station Road),21.0943917,71.7568456
Vansda(Limzar),,
Vansda,20.7610628,73.3636561
Derol,22.6299886,73.4619771
Shehra,23.478422549999998,80.9791272718899
Gogamba,,
Santrampur,23.1927742,73.8959255
Morva Hafad,,
Godhra(Timbaroad),,
Gogamba(Similiya),,
Derol(Vejalpur),,
Godhra(Kakanpur),,
Lunavada,23.1290668,73.611114
Halol,22.5058547,73.4715851
Umreth,22.6990518,73.115045
Khambhat(Grain Market),,
Tarapur,24.830302,92.7875689
Kosamba(Zangvav),,
Mahuva,21.0914409,71.7621979
Songadh(Badarpada),,
Kosamba(Vankal),,
Kosamba,21.4666151,72.9518617
Uchhal,21.1772912,73.7687744
Valod,21.0488646,73.2615399
Vyara(Paati),,
Songadh(Umrada),,
Mahuva(Anaval),,
Bardoli(Madhi),,
Khedbrahma,24.0310837,73.0484016
Bhiloda,23.35962155,79.84000268007105
Talod(Harsol),,
Malpur,23.3594332,73.4649753
Himatnagar,23.5971246,72.9588273
Prantij(Salala),,
Botad(Bhabarkot),,
Devgadhbaria,,
Dahod(Himalaya),,
Zalod(Zalod),23.110535929711215,73.46196582681306
Davgadbaria(Piplod),,
Limkheda,22.834878,73.9846526
Zalod(Sanjeli),,
Valia,21.5711115,73.1608821
Hasot(Elav),,
Kheda,22.8532503,72.99535862253666
Mehmadabad,,
Matar,23.4513709,74.7036129237055
Thasara,25.0000997,76.4502418
Matar(Limbasi),,
Thasara(Dokar),,
Rajpipla,21.878069,73.5039695
Vagodiya,,
Bodeli(Kalediya),,
Savli,22.562511,73.2230996
Thattanchavady,11.94419615,79.80605034370674
Madagadipet,,
Karaikal,10.91571,79.8375761
Garhshankar(Saila Khurd),,
Jalandhar Cantt(Hoshiarpur Road),,
Nakodar(Sarih),,
Bilga (Talwan ),,
Jalandhar Cantt.,31.308375,75.599961
Shakot (Malsian),,
Jalandhar Cantt (Jamshedpur Dana Mandi),,
Jalandhar City(Kartar Pur Dana mandi),,
Noor Mehal(Kot Badal Khan),,
Dhanula (Kaleke),,
Tapa(Tapa Mandi),30.3030899,75.3669298
Mehal Kallan (ChananWal),,
Bhadaur(Sehna),,
Mehal Kalan,30.5293884,75.5653904
Dhilwan,31.514313,75.3446674
Sultanpur Lodhi (Tibba),,
Sri Har Gobindpur(Harechowal),,
Kahnuwan,31.9076836,75.4501301
Boha,25.23089585,87.69157224662186
Bhikhi,30.0591052,75.5346778
Mansa (Khiala kalan),,
Bareta,24.8460948,80.67366484855464
Mansa (Bhamekalan),,
Budhlada (Phaphre Bhaike),,
Mansa(Ubha Buraj Dhilwan),,
Rayya(Sathiala),,
Amritsar(Chehreta),,
Ajnala (Sudhar),,
Attari,31.6008513,74.6060595
Banga (Kataria),,
Nawan Shahar(Mandi Jadla),,
Rampuraphul(Chowke),,
Sangat,30.090642,74.835434
Talwandi Sabo(Shekhupura),,
Rampuraphul(Bhai Rupan),,
Bhagta Bhai Ka(Kotha Guru Ka),30.4776582,75.0960189
Bhagta Bhai Ka (Jalal),30.4829476,75.0975095
Rampuraphul(Dhapali),,
Rampuraphul(Mehraj),,
Talwandi Sabo(Kot Fatta),,
Samana(Kakrala),30.276597206927047,76.31180194902248
Patran(Ghagga Mandi),,
Bhadson,30.5064737,76.2451478
Samana(Gajewas),,
Dakala,30.2198411,76.3546371
Patiala(New Anaj Mandi),,
Patiala(Anaj Mandi Sanaur Road),,
Amloh(Gobind Garh Mandi),,
Khamano (Sanghol),,
Chanarthal,29.9486141,76.82807
Sherpur,20.8743909,77.64077220308234
Cheema,30.9297035,75.1708628
Cheema (Lonogal),,
Sandaur,32.1620262,76.2714243
Amargarh,30.4634148,76.0115571
Dirba,30.0722475,75.9952782
Sulargharat,,
Khemkaran (Amarkot),,
Khem karan,31.144424,74.559673
Bhikhiwind (Marrimegha),,
Bhikhiwind (Algo),,
Bhikhiwind (Basarke),,
Bhikhiwind(Khalra),,
Naushera Pannua (Dhotian),,
Bhikhiwind (Sursingh),,
Chabhal,31.583134728113734,74.60773575443561
Faridkot (Machakikalan),,
Jaitu(Bajakhana),,
Nihal Singh Wala (Rautan),,
Moga,30.7877554,75.15935898836224
Nihal Singh Wala (Himmatpura),30.560837448388533,75.33335897004655
Ajitwal (Chogawan),,
Ajitwal (Dala),,
Badhni Kallan (Bilaspur),,
Ajitwal,30.8137976,75.3379876
Badhni Kalan,30.6802082,75.2903773
Narot J Singh,32.2970656,75.4579554
Pathankot (Kanwa),,
Talwandi Bhai(Mudki),,
Mallanwala,31.062068,74.8225006
Ferozepur Cantt(Jhok Harihar),,
Mamdot(Tibbi Khurd),,
Mallanwala (KhosaDalSinghwala),,
"Ferozepur Cantt, (Sadehasham)",,
Sidhwan Bet (Lodhiwala),,
Hathur,30.6047229,75.4300315
Raikot (Nathowal),,
Ludhiana(Mandi gill Road),,
Malaoud (Siar),,
Sidhwan Bet,30.9286476,75.4735462
Kila Raipur,30.7623119,75.8228676
Maloud,30.6335179,75.9359765
Raikot (Talwandi rai),30.67830858471706,75.58509173651214
Ludhiana(Salem Tabri),,
Malout (Kilianwali),,
Malout (Panniwala),,
Gulburga(Jhevargi),,
Harihara,14.5116874,75.809288
Koppal,15.57482375,76.3118493692591
Karatgi,,
Manvi,15.9967483,77.0481181
Lingasugur,16.1563,76.5242
Kundagol,15.258964800000001,75.24197062417657
Bidar,18.02072965,77.24872035766641
Basava Kalayana,,
Shorapur,16.5476954,76.7379577587515
Karkala,13.2145414,74.9951861
Honnavar,14.3159009,74.432402
Karwar,14.8120931,74.1319229
Kumta,14.4372403,74.421244
Sindagi(Hendi),,
Challakere,14.3134476,76.6497826
Hosadurga,13.7987759,76.2831034
Athani,16.7270022,75.0631428
Kudchi,16.62622545,74.8513676920465
Bailahongal,,
Soundati,,
Nandagada,15.576672,74.569272
Sirguppa,,
Bantwala,,
Belthangdi,,
Tumkur,13.3400771,77.1006208
Tiptur,13.258575,76.4737675
Roha,18.44658,73.1238722
Mahad,18.080753,73.42438
Murud,18.3220393,72.9604835
Alibagh,,
Mangaon,18.2475244,73.2755104
Karjat(Raigad),18.9127655,73.3228202
Khalanpur,,
Nilanga,18.083766699999998,76.79922866727809
Latur,18.355334749999997,76.75489974062862
Ahmedpur,29.9331768,75.5143694
Jalkot,18.6290607,77.1783024
Gadhinglaj,16.14090075,74.40369325283643
MS Kalpana Agri Commodities Marketing,,
Chamorshi,19.9370829,79.8893906
Armori(Desaiganj),20.6212964,79.9655327
Gandchiroli,,
Sironcha,18.8481969,79.9639321
Karjat,18.9127655,73.3228202
Akole,19.5419344,74.0092582
Purna,20.900617860791755,76.83041021823661
Jintur,19.610654150000002,76.74356166512683
Kalamnuri,19.57234595,77.34749486296272
Sengoan,,
Basmat,19.3267094,77.1575267
Yeola,20.0429079,74.4880389
Dindori(Vani),,
Nandgaon,20.3094018,74.6597622
Suragana,,
Tuljapur,20.982422550000003,77.65495275163335
Murim,,
Washi(Osmanabad),18.5349906,75.80301515172322
Umarga,17.8365426,76.6250052
Kalamb(Osmanabad),18.5730474,76.0224924
Hadgaon,19.47861705,77.60680417685384
Loha,18.93608435,77.1015488505494
Dharmabad,18.921678649999997,77.76234799996453
Kandhar,18.842451150000002,77.2510665832296
Bhokar,19.194825350000002,77.68339903161365
Naigaon,19.3510925,72.8465229
Karanja,20.4820707,77.489234
Mangrulpeer,,
Washim,20.287417750000003,77.23696550258964
Lonar,19.9830917,76.49114484905407
Pombhurni,,
Mul,20.0651224,79.6767277
Sindevahi,,
Chimur,20.4942258,79.373825
Bhivandi,19.2688735,73.0463121
Vasai,19.3428238,72.805441
Barshi(Vairag),,
Akkalkot,17.515193,76.21227796359193
Mulshi,18.5134117,73.56688455121464
Parali Vaijyanath,,
Ambejaogai,,
Majalgaon,19.14106455,76.17077316562433
Beed,18.9918442,75.90978399809711
Gevrai,19.6281577,76.3786697
Pusad,19.8858198,77.48461198760842
Aarni,25.073194,74.310218
Digras,20.09683345,77.76281840701293
Yeotmal,,
Arjuni,21.04954365,79.61489872608512
Gondiya,21.1456285,80.26838674856234
Amgaon,21.95962705,79.50347354271946
Tiroda,21.39516115,79.93879844521246
Sadak Arjuni,21.0931803,80.1541573
Devri,23.57991645,81.42912085937698
Goregaon,19.1648688,72.8495492
Hindol,20.63810575,85.21285529708807
Dumal,20.4286586,85.1902116
Rairakhol,21.0462204,84.3333106
Rahama,20.2983235,86.404877
Chandabali,20.8287719,86.74779457687976
Abu Road,24.4812736,72.7852867
Bhawani Mandi,24.4192876,75.8302837
Bhawani Mandi(Raipur),,
Bhawani Mandi(Choumehla),,
Hanumangarh(Urlivas),,
Suratgarh,29.3203309,73.9026728
Sangriya,18.56436625,73.77502875690729
Hanumangarh Town,29.5744086,74.3312387
Pilli Banga,,
Hanumangarh,29.3659533,74.29842896506344
Gharsana,29.0231819,73.0742912
Jaitsar,29.3488844,73.6591072
Sriganganagar,29.9319645,73.8723448
Anoopgarh,29.2561276,76.3509044
Sri Vijayanagar,12.97176975,77.53771394335222
Surajgarh,28.297926,75.7311124
Nimbahera,24.6236769,74.6946014
Keshoraipatan,25.2915232,75.9399658
Sadulpur,28.6415386,75.3852992
Najafgarh,28.6124504,76.9865067
Nalbari,26.35336315,91.39836617554388
Goreswar,26.63033105,91.70161704075863
Nanakmatta,28.9463979,79.8134335
Bhurkoni,21.1152948,82.551343
Mahasamund,21.19228455,82.48902633077708
Bhoring,,
Jhalap,23.533891,73.6910319
Sakra,25.9657396,85.52930914002167
Komakhan,,
Bheemkhoj,,
Pirda,21.3668283,82.7728628
Basana,23.6444805,72.4490936
Tendukona,,
Sarayapali,,
Jaitgiri,19.3167319,82.1351853
Lohandiguda,19.1653061,81.7433345
Karpawand,19.3656888,82.0874619
Devda,22.3572654,74.8279137902146
Tokapal,19.0111236,81.8903303
Bastar,19.11912825,81.82918648971713
Muli,22.6217,71.4527
Sukma,18.26654225,81.29252341475065
Doranpal,,
Kukanar,18.6375733,81.7353857
Biranpur kalan (Sahaspur Lohra),,
Pipriya,24.45080615,77.8768299169696
Bhatgaon,22.8625847,78.21787679820278
Kasdol,21.6193745,82.4270994
Amadula,20.4690056,81.2506945
Champa,23.318258999999998,81.40908735459422
Kotmi,22.21682115,77.94040086457916
Naila,32.7343724,76.1441106
Rahod,,
Jaijaipur,21.8329051,82.8168413
Baradwar,22.011794,82.8127168
Shivrinarayanpur,,
Birra,26.05533485,78.80419849430311
Hasoad,,
Bhaisma,,
Risgaon,20.2653575,82.8203058
Chhati,30.316136,78.4744834
Bhendri,,
Aamdi,23.501392600000003,75.6928336579653
Kedar,20.85792955,76.38171519502444
Chikhli,20.7581399,73.0598983
Sariya,24.1746016,85.8918945
Pusor,,
Sarangarh,21.5856358,83.0782699
Chura,31.0100194,77.2004127
Phingeshwer,,
Udaypur,21.756358300000002,75.67194943432389
Raghunathpur,20.3519157,86.1499006
Kakni,24.6174714,85.9915585
Beltara,22.2703451,82.2652773
Jairamnagar,22.0355752,82.2964167
Makdi,19.5422286,79.5269501
Chhinari,25.5090674,77.26093854505731
Dhanora,20.2710221,80.3095434
Mardapal,19.3753526,81.544868
Bededonger,,
Vishrampur,21.639968500000002,76.56084425018301
Hirapur,25.2877618,77.67969532567783
Pharasgaon,19.8600905,81.6378593
Gamhari,,
Keshkal,20.083284,81.589058
Lakhanpuri,20.396073,81.4294088
Antagarh,20.0989713,81.158073
Dudhawa,20.30560355,81.784390153548
Sarona,23.2206029,74.6745014
Bhanupratappur,20.3101125,81.0720623
Korar,23.51402,81.5288298112576
Narharpur,24.60555235,80.5905284719994
Bharamgarh,,
Bhopalpattnam,19.00000575,80.40387404059305
Bariya,22.33551675,75.23375538678118
Rajpur,21.2380912,81.6336993
Bazar Atriya,,
Chhuria,21.006024,80.627374
Ambagarh Chowki,20.49577305,80.80002495666861
Pratappur,24.3065742,84.61573995905908
Anand Nagar,27.1026549,83.2747426
Sethiathoppu,11.4362875,79.5423084
Kurinchipadi,11.560854,79.5975832
Shrimushnam,,
Cuddalore,11.52020705,79.33963564750636
Kattumaner koil,,
Virudhachalam,11.54787515,79.38453998266513
Tittakudi,11.442171,79.11525545955024
Kamuthi,9.4086134,78.3684318
Paramakudi,9.48671505,78.67227177440276
Ramanathapuram(phase 3),9.3652354,78.8343193
Sivagangai,9.9650599,78.7204283237222
Rajasingamangalam,,
Arur,11.2331914,79.6899104
Theni,9.86925575,77.42229738345591
Bodinayakkanur,10.0190463,77.3460527
Cumbum,9.7394057,77.2853013
Chinnamanur,9.8415861,77.3849422
Ammoor,12.9766261,79.3627129
Gudiyatham,12.9485676,78.8705336
Arkonam,,
Arcot,12.9078949,79.320393
Kalavai,12.769072,79.4195652
Thimiri,12.8283329,79.3076908
Kaveripakkam,12.9079163,79.4625102
Katpadi,13.04350505,79.24040961395568
Uthukottai,13.3342334,79.8910439
Thirukkalukundram,,
Ponner,,
Kanchipuram,12.9647163,79.9839686
Acharapakkam,12.4076751,79.8172425
Gummidipoondy,,
Uthiramerur,12.6494251,79.78057474939979
Nazerethpet,,
Maduranthagam,12.502085145052197,79.88944081332532
Sunguvarchatram,12.92556,79.8790492
Tiruttani,13.16108315,79.55158424492785
Chengalpattu,12.6840886,79.9836371
Pallipattu,13.3370832,79.4408239
Manamadurai,9.729825850000001,78.41827693213487
Karaikudi,10.0728444,78.7795194
Singampuneri,,
Poonthottam,10.8268025,79.3903161
Thiruvarur,10.6878621,79.49794371209825
Valangaiman,10.8561507,79.35704114795483
Mannarkudi,11.394074703927942,79.69128959408229
Mannargudi,10.675141,79.4553714
Vaduvur,10.7184862,79.3172669
Koradacheri,10.7699593,79.4912099
Kudavasal,10.85510755,79.50220268168025
Tiruthuraipoondi,10.53,79.643497
Redhills,13.107518721376954,80.20625797585694
Tiruvellore,13.04016445743653,80.2579970042409
Kuttulam,11.0338327,79.58597666160102
Kilvelur,10.68943295,79.71717927680456
Thirupoondi,10.6266397,79.8113179
Nagapattinam,10.60262025,79.7619347994777
Vedaranyam,10.42794765,79.74895829623102
Sirkali,11.26590385,79.74432689119347
Sembanarkoil,11.1043049,79.7352532
Mailaduthurai,,
Dindigul,10.425689649999999,77.815663999998
Palani,10.4511094,77.5154495
Gopalpatti,18.5097262,73.9650893
Natham,10.2689998,78.2507118540676
Rajapalayam,9.403158399999999,77.51826437085998
Aruppukottai,9.845595552424198,78.1023928173073
Sathur,12.866564828257788,79.32493720314986
Coimbatore,11.0018115,76.9628425
Palladam,10.9708115,77.28172616917558
Pethappampatti,10.67755135,77.21588073901155
Udumalpet,10.5812766,77.2437652
Pollachi,10.6588234,77.00873
Karamadai,11.2393183,76.9600768
Pongalur,10.9711196,77.3769726
Anaimalai,10.5822989,76.9343247
Sevur,11.2508629,77.233818
Pudupalayam,11.7470293,79.7650969
Annur,11.2329709,77.103523
Thiruppur,10.5538875,78.8480615
Thondamuthur,10.9915465,76.8428673
Negamam,10.7470722,77.1008245
Vadaseri,10.732691,78.525975
Eathamozhi,8.1206445,77.389252
Thoothukudi,8.84570345,77.99381783527917
Kovilpatti,9.17559,77.8687
Erode,11.49052815,77.35052739885393
Boothapadi,11.869994,77.77045
Vellakkoil,,
Punchaipuliyampatti,,
Thalavadi,11.664535449999999,77.04502855118906
Kunnathur,9.070971,76.65025583236603
Kavunthapadi,,
Alangeyam,,
Gobichettipalayam,11.4551821,77.4350666
Mylampadi,11.2521469,75.8048497
Sivagiri,9.273782350000001,77.37908717167454
Kangeyam,10.99025425,77.62824961196536
Chithode,11.3954841,77.6580812
Moolanur,,
Vellankoil,,
Sathyamangalam,11.5523741,77.26537576524208
Dharapuram,10.7369082,77.5260968
Anthiyur,11.714445699999999,77.56793866448885
Kodumudi,11.13381335,77.83421853586054
Bhavani,11.226474058032629,76.76754954764154
Hosur,12.7183361,77.8229481
Karur,10.821767099999999,78.38286541157868
Attur,10.2877695,77.8520822
Salem,11.64696155,78.21069575456464
Thammampati,,
Karumanturai,,
Konganapuram,11.569658,77.9025476
Vazhapadi,11.70568415,78.35733625800609
Kolathur,13.1241127,80.2046276
Thalaivasal,11.537267550376571,78.75603097543024
Gangavalli,11.44300175,78.56659346763493
Moongilthuraipattu,12.063518,78.978448
Tiruvennainallur,11.8412704,79.4130531
Sangarapuram,9.842845129437018,77.37716603414412
Manalurpet,11.985976313447221,79.13149622326277
Villupuram,11.9398285,79.4945645
Tindivanam,12.2291607,79.6515314
Ulundurpettai,11.73918475,79.29805581787713
Avalurpet,12.3371411,79.2410501
Vikkiravandi,,
Ananthapuram,13.1673168,79.2128484
Gingee,12.2544154,79.4157756
Thirukovilur,11.771821854107753,79.55359622029862
Marakkanam,12.1959326,79.9441819
Kallakurichi,11.79468465,79.03882106200822
Thiruvennainallur,11.866427,79.4053467470583
Manalurpettai,12.0079588,79.0876281
Valathi,,
Chinnasalem,11.6354866,78.8809891
Thiruppananthal,11.090358013905343,79.4567855317786
Kumbakonam,10.9604108,79.3820861
Pattukottai,12.980651438871273,80.24226572490642
Thanjavur,10.65903695,79.20142776213416
Papanasam,10.9269845,79.2659271
Budalur,10.788649,78.9789575
Vallam,10.7188244,79.0613163
Orathanadu,10.57526625,79.29705957106928
Rasipuram,11.4537338,78.1784576
Namakkal,11.303388949999999,78.1186040211884
Velur,10.6392839,76.1557929
Namagiripettai,11.4556307,78.2681465
Usilampatty,10.5965294,78.4335581
Thirumangalam,13.085335,80.20151803571429
Melur,10.0858443,78.35602348202272
Chethupattu,12.654673947441681,79.63907067820024
Vettavalam,12.1102546,79.2454016
Pernamallur,,
Kilpennathur,12.217723450000001,79.18790450623325
Thiruvannamalai,9.539867,77.6197904
Dusi,18.3702447,83.858352
Desur,15.7528535,74.4985633
Thellar,12.401434,79.5519376
Chengam,12.350231099999998,78.87679641718432
Cheyyar,12.6563891,79.5404577
Vandavasi,12.5056013,79.6049607
Polur(Thiruvannamalai),,
Vanapuram,12.1049026,79.0184785
Alangudi,10.3603703,78.9778724
Aranthangi,10.1686451,78.9927909
Pudukottai,10.3826515,78.8191259
Trichy,10.8071144,78.6880939
Manachanallur,10.9114112,78.699836
Lalgudi,10.8754197,78.8153244
Thuraiyur,11.23020275,78.56506951981538
Manapparai,10.6082305,78.4231246
Andimadom,,
Sankarankovil,9.170073,77.535369
Thenkasi,10.5459976,79.5972817
Ambasamudram,8.7082538,77.4382732
Tirunelvali,,
Birbhum,24.06215315,87.69828228934051
Sainthia,23.9496876,87.6829354
Sainthia(Suri),,
Bishnupur,23.0757335,87.3146343
Rampurhat,24.1763069,87.7859569
Guskara(Burdwan),23.489222,87.746671
Kalna,23.2211183,88.3591889
Guskara,23.4926217,87.7371023
Memari,23.1777293,88.0966249
Burdwan,23.2495714,87.8681751
Diamond Harbour(South 24-pgs),,
Kolaghat,22.4430461,87.8737389
Ghatal,22.68230155,87.69916595325431
Jiaganj(Lalbagh),24.2442566,88.2771521
Jangipur,24.4561534,88.1073968
Jiaganj,24.2442566,88.2771521
Kandi,23.957862,88.0422449
Kalipur,22.390025,88.3767343
Kalipur(Champadanga),,
Khatra,22.975325,86.8539608
Indus(Bankura Sadar),,
Indus,32.9662997,79.22394187715047
Bankura Sadar,,
Bethuadahari,23.6112685,88.3845209
Nadia,23.4847374,88.55670673333935
Kishunpur,23.420191,85.3871289
Vilthararoad,,
Richha,23.00470765,78.97936374383616
Robertsganj,24.626615649999998,83.24030255442918
Kamlaganj,,
Chhibramau,27.07761345,79.5856960556917
Badda,23.7752388,90.417064
Mau(Chitrakut),,
Chirgaon,31.285987,77.90033968863534
Sikandraraau,,
Wansi,24.20213625,81.35563721667876
Bachranwa,,
Doharighat,26.04890485,83.1779652
Panchpedwa,,
Dataganj,27.91881445,79.34122617065147
Visoli,,
Babrala,28.2651557,78.4054229
Maharajganj,27.09360245,83.56606806432684
Maholi,21.9795304,78.2236706575118
Hargaon (Laharpur),,
Misrikh,27.53225485,80.4401156123335
Sindholi,,
Chandoli,27.7025563,76.5814555
Darbhanga,26.082989949999998,86.03249509324232
Shekhpura,26.29170515,78.27102467929075
Hajipur,25.6905702,85.2090351
Muzaffarpur,26.1482548,85.3316096785584
Natwar,24.4937539,82.42922971404504
Saidpurhat,,
Bihta,25.561037,84.8723411
Godda,24.864588599999998,87.2984837767587
Dumka,24.2677937,87.2485495
Hazaribagh,24.0866962,85.4912231023477
Ramgarh,23.693479,85.52159885702125
Khunti,22.92818005,85.28144745743757
Daltenganj,,
Chakulia,22.472820650000003,86.67634286011526
"R and B Guest House,RBZ,Vizianagaram",,
Mow,31.6126164,74.9665763
Khargapur,24.846137,79.1845286
Palera,22.79879275,78.72957751363143
Badarwas,24.97172835,77.5696601796021
Khaniadhana,25.03179715,78.12530427732332
Rannod,25.75974565,76.60782587050898
Pohari,25.5401891,77.3641395
Khategaon,22.59751695,76.91664818361514
Sonkatch,23.7682612,76.9932174
Bagli,23.16412745,77.49534274979712
Binaganj,24.1879436,77.0331716
Shadora,24.6150432,77.6380956
Piprai,24.51073015,77.96482490478041
Momanbadodiya,23.603802799999997,76.33420445387443
Berachha,25.7649253,78.73224892721886
Akodia,23.3786554,76.5993567
Soyatkalan,,
Kalapipal,23.3330597,76.8350124
Sajapur,,
Shajapur,23.41710015,76.60747942907905
Susner,23.94309475,76.09066546936432
Maksi,23.14954815,77.48192479726038
Ichhawar,23.033715899999997,77.02524237885203
Shyampur,23.3435615,77.41794997780475
Chhapiheda,23.481964,76.2734628
Pachaur,24.13368295,82.37690465504599
Khujner,23.79744375,76.61104901473378
Machalpur,24.12950765,76.31215246539867
Suthalia,24.00407465,77.11548359520474
Jeerapur,,
Piplya,22.344625899999997,75.24911740256042
Shamgarh,24.1920321,75.6429568
Garoth,24.331508,75.5815798225257
Bhanpura,23.70192495,80.40877475514156
Daloda,23.95597525,75.10412832351321
Suvasra,,
Sitmau,,
Karhi,25.5669859,78.10096269264118
Bhikangaon,22.01898915,76.11708247955838
Malthone,24.3087999,78.53702154572835
Rehli,22.91809895,79.13706192124295
Javad,12.621585199999998,78.8610515
Unhel,23.3376034,75.56010113169344
Khachrod,23.4425475,75.2863777
Nagda,23.4578957,75.4191114
Badnagar,23.1351955,77.1256406
Tarana,23.334611799999998,76.0447335950285
Gautampura,23.31204225,74.62092724759887
Kailaras,26.29620535,77.62009440335072
Anjad,22.049061000000002,75.0565446240557
Harsood,,
Patharia,23.9056806,79.1923956
Vijaypur,24.7310327,79.58104018447827
Sailana,23.455943650000002,74.92735274959371
Ratlam,23.50222005,74.9551534052134
Taal,26.296418699999997,83.08613702642766
Mehsana(Jornang),,
Unava,23.3345092,72.6562824
Vijapur(Gojjariya),,
Vijapur(Kukarvada),23.53229901806372,72.58866390795119
Bhatiya,22.088543,69.2800719
Dhrol,22.5675674,70.4164394
Jam Jodhpur,21.9066858,70.0312555
Bhesan,21.5527226,70.7069913
Amreli,21.4176122,71.24960898982046
Lathi,21.724718,71.3899959
Bagasara,21.4857835,70.9559406
Vankaner,21.071915,73.168471
Harij,23.6931596,71.9008666
Vadali,23.9411124,73.0403755
Idar,23.8362255,73.0114616
Jasdan,22.0399,71.2046
Jamkandorna,,
Rajkot,22.3053263,70.8028377
Jetpur(Dist.Rajkot),,
Bhuj,23.2472446,69.668339
Bachau,23.3429256,70.4310318
Vadgam,24.0782271,72.4891682
Dhanera,24.5036694,72.0325116
"Dhanera(Veg,Yard Dhanera)",,
Diyodar,24.1124838,71.7695134
Gokak,16.1693033,74.8224338
Daryapur,20.9244231,77.3240074
Nanggaon,,
Varud(Rajura Bazar),,
Anajngaon,,
Telhara,21.037751800000002,76.8671321906473
Balapur,17.3096061,78.4999427
Udgir(Devanibud),,
Gangapur,22.7856874,88.5389563
Sillod,20.2997045,75.6524885
Paithan,19.4733594,75.3868103
Vaijpur,,
Sillod(Bharadi),,
Lasur Station,19.9263446,75.0118617
Pathardi,19.1717199,75.174557
Sonpeth,18.9800057,76.57285896078217
Pathari,23.9344875,78.2176263
Lasalgaon(Niphad),20.1426837,74.2377507
Satana,20.5991006,74.2021078
Nandura,20.8385687,76.4603069
Buldhana(Dhad),,
Sindkhed Raja,20.0566065,76.38903175760177
Chikali,24.6436231,75.09903149821848
Bhokardan,20.2928317,75.80401587498686
Mantha,19.730230499999998,76.33469339055208
Ghansawangi,19.492486,76.0196292
Bhokardan(Pimpalgaon Renu),,
Ambad (Vadigodri),,
Pulgaon,20.7258046,78.3176198
Pachora(Bhadgaon),,
Shantilal Jain Agro,,
Jamner,20.732284800000002,75.802433451674
Nira(Saswad),,
Nira,18.0450325,74.6421969
Kada,24.49618985,73.39094672152578
Jagdamba Agrocare,,
Dooni,25.8717304,75.6000352
Uniyara,25.8304495,75.6351828
Aklera,24.4150218,76.5663056
Khanpur,31.1577067,75.9322635
Jhalarapatan,24.5334409,76.1966465
Goluwala,29.6298104,74.0531576
Nohar,29.1922355,74.7743423
Rawatsar,29.2631,74.4016
Bhadara,21.1225869,79.79450898891825
Dholpur,26.7010642,77.896749
Bheenmal(Ranlwada),,
Bhinmal,25.0071053,72.2653077
Sadulshahar,29.9030191,74.1721767
Rawla,21.9792493,76.34874863360508
Sri Karanpur,,
Raisingh Nagar,29.537659,73.449458
Ridmalsar,29.5665863,73.7308172
Kesarisinghpur,29.9500081,73.6198867
Gajsinghpur,29.6576658,73.4404763
Hindoun,,
Rani,25.3487179,73.3109679
Pali,25.45522105,73.4193889559074
Bijolia,25.162885,75.3237803
Mandalgarh,25.1942551,75.0811226
Mathania,26.52004506688067,72.9307342028576
Chirwa,30.2396415,76.5824747
Nawalgarh,27.8503,75.2741
Sikar,27.662505799999998,75.02799052644464
Sri Madhopur,27.4253618,75.71622219203564
Palsana,27.4857497,75.3776831
Dausa,26.80486585,76.44374569929329
Bandikui(Geejgarh),,
Lalsot(Mandabari),,
Mahuwa Mandawar,,
Bandikui,27.0457102,76.5752695
Mahua Mandabar(Mahua),,
Ramgang Mandi(Bapawarkala),,
Ramgang Mandi(Samod),,
Chechat,24.764992,75.8871173
Begu,29.4890437,75.0503999
Fatehnagar,24.8156354,74.0942855
Kapasan,24.8614365,74.3110046
Badrisadri,,
Balotra,25.8300564,72.2470946
Barmer,25.5814853,71.19249222700306
Beawar,26.0992137,74.3127044
Vijay Nagar(Gulabpura),,
Khedh(Bodaramev),,
Khedli(laxmangarh),,
Kherli,27.2003038,77.037136
Chhabra(Chhipabadod),,
Atru(Kawai Salpura),,
Chhabra,22.2518168,78.50808279107514
Anta,25.7717211,71.0930657
Sridungargarh,,
Bajju,27.927232449999998,72.34922248259073
Lunkaransar,28.4931301,73.7431429
Bharatpur(Kumer),,
Nadwai,,
Nagar,27.4216563,77.100411
Bharatpur,27.024695899999998,77.29201163357268
Deeg,27.4773321,77.3257027
Jaisalmer,26.9116615,70.9124888
Chomu,27.1726642,75.720359
Kotputli,27.707172,76.1996447
Jaipur(Grain)(Sodala),,
Bagru,26.8087953,75.5423119
Kotputli(Pawla),,
Kishangarh Renwal,27.1597154,75.3593637
Kishan Renwal(Sambhar),,
Jaipur(Bassi),26.856094631238967,76.00522059075736
DEI(Bundi),25.6767282,75.9442913
Sumerganj,25.7282616,76.2327904
Dungarpur,23.8538893,73.7087177
Churu,28.20477805,74.69129960764752
Sujangarh(Churu),27.709355,74.4642899
Beldanga,23.9396239,88.2495778
Karimpur,23.9816034,88.6296098
Panwadi,24.300133600000002,75.5431281926927
Dudhi,24.114815749999998,83.01412203326177
Gurusarai,,
Mauranipur,25.2964858,79.11711518467087
Kadaura,25.9867413,79.8379593
Barbigha,25.20696505,85.77147066250001
Sikandara,25.5968915,81.9799429
Danapur,25.6358901,85.0474045
HandwaraFV,,
Ganderbal,34.288932200000005,75.04079833889585
"Khoya Market, Kashmiri Gate",,
Shamgarh(F&V),,
Panchkul(Kalka),,
Randheja(Veg.Market Gandhinagar),,
Palitana,21.5236104,71.8219597
Borsad(Veg Yard Barsad),,
Himatnagar(Veg.Market Himatnagar),,
Kamakshi,9.8313617,77.0484741
Pulivendala,,
Pandhurna(F&V),,
Valsad,20.43219565,73.14098929730321
Jam Khambalia,,
Jhagadiya,21.7266802,73.1492858
Bodeli(Hadod),,
Bodeli(Modasar),,
Bodeli,22.269829,73.7161432
Margao,15.272923,73.9583159
Ponda,15.397935050000001,74.00797876754456
Mapusa,15.5926511,73.8119741
Mhalingapur,,
Sangrampur,22.2255328,88.3298599
Pachora,20.65625755,75.40110923911735
Raver,21.2222313,76.0444182
Yawal,21.226001750000002,75.69508249050847
Baramati,18.21985375,74.45340540036307
Nandurbar,21.51416215,74.54055132515717
Maranelloor,,
Kunnathukkal,,
Payyannur,12.151187700000001,75.25602904352965
Irityy,,
Chavassery,11.9463813,75.6090818
Kizhakkancheri,,
Thompramkudi,,
Kanchanpur,23.26338425,81.45537417065253
Wahiajer,25.5366755,92.1616715
Mayabandar,,
Sulur,10.989053649999999,77.10149710652146
Kulasekaram,8.3646941,77.2996678
Mechua,,
Habra,22.8400629,88.6630678
Patna (Musallahpur),,
Chuliaposi,,
Damana Hat,,
Barasat,22.7191072,88.4826229
Chikli(Khorgam),,
Chikhali,21.2598512,77.55017644367626
Newasa,22.4287273,80.74231211350302
Khetia,23.313686,87.8850698
Sangamner,19.4906351,74.24668214435675
Hoshiarpur(Chara Mandi),,
Faridabad(Fish Market),,
Panipat(Fish Market),,
Yamunanagar(Fish Market),,
"Fish,Poultry & Egg Market, Gazipur",,
Jhargram,22.4538505,86.9949477
Piler,13.6625987,78.9280785
Marapally,,
Namchi,27.3031019,88.37859609224414
Ramdurga,,
Akot,21.04746095,77.05527606973357
Narkhed,21.6980698,78.26264602266265
Sangli(Miraj),16.8502534,74.5948885
Vita,17.271977,74.5372841
Malegaon(Vashim),,
Korpana,19.7405915,78.9893603
Dudhani,21.43180795,76.79903870107947
Bodwad(Varangaon),,
Junnar(Bhlhe),,
Bhor,18.21276065,73.81636625187367
Taloda,21.5627715,74.2123371
Rohtak(Kalanaur),,
Elevancheri,,
Oddunchairum,,
Omalur,11.7428538,78.0472667
Daunagar,,
Sheohar,26.49342335,85.27175608137802
Sonpur,22.0166669,78.95683353755095
Shevgaon(Bodhegaon),,
Motala,20.6850169,76.15288039466076
Partur,19.4882762,76.2606978336699
Ariyalur Market,,
Somala,13.4743889,78.8107553
Bangarupalem,13.190959849999999,78.91289900280711
Hindupur,13.8306127,77.492635
Shrigonda,18.67638375,74.67093388983076
Tasgaon,17.09048585,74.68326753168
Kada(Ashti),18.896328,75.0785773
Dharampuri,22.73689195,74.61070357633503
Narsingi,17.3915187,78.3598924
Sedam,17.1812073,77.2856943
Tiruchengode,11.3786608,77.8949223
Bermo,23.800656850000003,85.93276678827354
Lalpur,23.14350895,75.84068744122786
Upleta,21.7466811,70.2821426
Om Chaitanya Multistate Agro Purpose CoOp Society,,
Karjat(Rashin),,
Parner,19.09318555,74.39406328486126
Jalgaon Jamod(Aasalgaon),,
Karmala,18.321381,75.11687729592097
Parola,20.8313089,75.11491755789966
Jamner(Neri),,
Amalner,21.0493189,75.0573385
Lonand,18.0387975,74.186926
Sadulpur(ph 3),28.6415386,75.3852992
Kianthukadavu,,
Loharda,22.586156250000002,76.59524595662393
Manora,20.224710899999998,77.55022641730207
Kurdwadi(Modnimb),,
Hinganghat,20.542611,78.8331636
Bodwad,20.9034659,76.0174431
Banswara,23.49150465,74.35021720129201
Ajmer (Grain),,
Rajasamand,,
Avalpoonthurai,,
Niralangar (F&V),,
Kuber,28.5871793,77.1705518
Boath,19.360334,78.27933875061495
Akodiya,26.3994042,73.9611625
Mundi,23.7120598,79.48551851746014
Khambha,21.1410665,71.2537125
Savarkundla,21.3355059,71.3130864
Valia(Nethrang),,
Alanda,20.61976595,77.06472781309161
Aurad,18.250166,77.40673890741616
Chandur Bazar,21.2375703,77.7479366
Chandur Railway,20.76487205,77.97303512318821
Tiwasa,20.3547269,77.9827535
Varud,21.1910506,74.8529517
Dharni,21.5524242,76.8891927
Shetkari Khushi Bazar,,
Dhamngaon-Railway,,
Barshi Takli,20.57901705,77.07805421964687
Patur,20.422945849999998,76.86324687407993
Murtizapur,20.7222303,77.97902644465103
Latur(Murud),18.409641999999998,76.4661852444638
Devani,18.30980648116133,77.1186206791389
Renapur,18.5776134,76.5452326445218
Chakur,20.87986425,77.5833057283977
Aurad Shahajani,18.0562743,76.9286612
Nagpur(Hingna),21.12191855,78.92778485
Savner,21.43204765,78.88763805551015
Mauda,21.6622385,80.2744177382227
Katol,21.2171806,78.63642178329636
Jamkhed,18.66875055,75.35238775702413
Shevgaon,19.37971705,75.29548723237988
Shrirampur(Belapur),,
Shrigonda(Gogargaon),,
Bori,22.052120199999997,79.6920783405372
Manwat,19.2990519,76.4938736
Tadkalas,19.131303,76.9442401
Shree Salasar Krushi Bazar,,
Selu,19.4548608,76.4388052
Gangakhed,18.91309975,76.75570683410183
Jintur(Bori),19.466419930500727,76.74663271741368
Akhadabalapur,,
Basmat(Kurunda),,
Jawala-Bajar,,
Hingoli(Kanegoan Naka),,
"Sant Namdev Krushi Bazar,",,
Vitthal Krushi Utpanna Bazar,,
Gajanan Krushi Utpanna Bazar (India) Pvt Ltd,,
Marathawada Shetkari Khajgi Bazar Parisar,,
Chandvad,20.3278147,74.2387228
Lasalgaon(Vinchur),,
Pimpalgaon,20.891931749999998,79.73172398653668
Shree Rameshwar Krushi Market,,
Pimpalgaon Baswant(Saykheda),,
Mankamneshwar Farmar Producer CoLtd Sanchalit Mank,,
Paranda,20.610412,77.12011820718601
Bhoom,18.4596302,75.6598088
Lohara,24.54745895,80.93789285564367
Mahur,25.1406664,93.24816822504137
Kundalwadi,16.9213802,74.258979
Kuntur,18.9106984,77.5362524
Hanegaon,18.3422488,77.4433812
Hadgaon(Tamsa),,
Umari,21.31879165,77.56776655821895
Mukhed,18.57536535,77.38392463142662
Himalyatnagar,,
Mudkhed,19.139350399999998,77.50139298454343
Jai Gajanan Krishi Bazar,,
Washim(Ansing),,
Krushna Krishi Bazar,,
N N Mundhada Agriculture Market Produce,,
Risod,20.0337576,76.83402788729936
Maharaja Agresen Private Krushi Utappan Bazar Sama,,
Mehekar,,
Sangrampur(Varvatbakal),,
Jaykissan Krushi Uttpan Khajgi Bazar,,
BSK Krishi Bazar Private Ltd,,
Buldhana,20.562845000000003,76.40869861474177
Jalgaon(Jamod),21.05965685,76.49545232145366
Rajura,21.76640405,75.51074504421727
Jafrabad,26.41723155,77.87632911839907
Ashti(Jalna),19.37657,76.2232575
Sindi,20.8046434,78.8870287
Arvi,20.936150050000002,78.28921691830388
Wardha,20.82562315,78.61314549522919
Ashti,18.88748765,75.06550177838542
Sindi(Selu),,
Ashti(Karanja),,
Samudrapur,20.6131435,79.02401116068596
Dharangaon,21.0061881,75.2863345
J S K Agro Market,,
Vadvani,,
Vani,9.3380524,78.8845629
Mahagaon,19.833610200000003,77.75827514403905
Kisan Market Yard,,
Maregoan,,
Shekari Krushi Khajgi Bazar,,
Bori Arab,,
Umarked(Danki),,
Kalamb,20.3714183,78.3432616106027
"Mahesh Krushi Utpanna Bazar, Digras",,
Umarkhed,19.5982171,77.91409929687705
Cottoncity Agro Foods Private Ltd,,
Ramdev Krushi Bazaar,,
Ralegaon,20.4227234,78.5218429
Babhulgaon,20.703984650000002,77.08455286049683
Mahavira Agricare,,
Darwha,20.324891649999998,77.77794088841767
Ner Parasopant,,
ZariZamini,,
Pandhakawada,,
Dhadgaon,21.8249883,74.218645
Dondaicha(Sindhkheda),,
Khuzama,25.5354036,94.1352465
Dhandhuka,22.3816365,71.9791414
Nasvadi,22.0435079,73.7270058
Chotila,22.4243903,71.1992399
Chittapur,18.8896606,78.6942332
Bhuvanagiri,17.5172789,78.8863383
Virudhunagar,9.4926289,77.86318306460637
Nambiyur,11.361483849999999,77.35019842835304
Perundurai,11.2539029,77.6288316
Muthur,11.0436623,77.7344856
Tiruchengode(Agri. Coop. Marketing Society),,
Jayamkondam,11.0221647,78.5274839
Sojat City,,
Tadipatri,14.9069559,78.0097071
"Alwal,RBZ",,
Achampet(Amrabad),,
Hasot,,
Jambusar,22.0514367,72.8069758
Jambusar(Kaavi),,
Dediyapada,,
Karjan,22.0523055,73.1216703
Nasvadi(Thalkala),,
Shinor,,
"Registrar Co Op,Panaji",,
Mohol,17.77096095,75.64350531586692
Partur(Vatur),,
Raver(Sauda),,
Indapur(Nimgaon Ketki),,
Dahivadi,20.84507725,76.3758854214341
Akkalkuwa,21.5549576,74.0161784
Thirupathur,10.59635,79.56857
Vedachandur,10.537248,77.90691879417929
Chengeri,,
Vilathikulam,9.1681761,78.19969001556524
Byadagi,14.6719843,75.4858218
Pattikonda,15.3954238,77.5014036
Kadiri,14.1082305,78.161069
"Flower Market, Canaught Place(Pr. Yard,Mehrauli)",,
"Flower Market,Gazipur",,
Patna City,25.6093239,85.1235252
Solan(Parwanoo),,
Khegsu,,
Devadurga,16.4210218,76.9330038
Mulakalacheruvu,13.8145575,78.2679622
Vayalapadu,13.6386936,78.6313965
Urvakonda,,
Anantapur,14.72421995,77.43067380798242
Tenakallu,,
Malia Hatina,,
Himatnagar(Gambhoi),,
Idar(Jadar),,
Jetpur-Pavi,22.3462548,73.8416216
Jepur Pavi(Chackak),,
Chidambaram,11.3920706,79.703025
Pennagaram,12.112527700000001,77.86772468328726
Senjeri,11.2384363,78.8278516
Thoduvetty,11.6558923,76.2857362
Elumathur,11.1891651,77.7711686
Pochampalli,12.34789305,78.37660408493795
Perfect Krishi Market Yard Pvt Ltd,,
Junnar(Alephata),,
Ashoknagar(F&V),,
Alirajpur(F&V),,
Pandhana(F&V),,
Baruch(Vagara),,
Laskein,25.547697749999998,92.46162791821507
Lalbagh,22.28502445,75.50869147065907
Champadanga,22.8388873,87.9714778
Triveniganj,26.1270382,86.8872792
Bhawanipur,25.6162208,87.19675284356312
Vikramganj,,
Lakhtar,22.8724876,71.7763542
Sirmour(Bagthan),,
Chakia,26.4704098,84.99332368415389
Khed(Shel Pimpalgaon),,
Dawki,25.1856343,92.0215717
Darjeeling(Klimpong),,
Bedia,24.2430317,86.9573983
Canacona,15.0068417,74.0394887
Kalawali(Odhan),,
Kodinar(Dollasa),,
Derol(Adadara),,
Savli(Samlaya),,
Savli(Desar),,
Halvad,23.0182418,71.1833818
Khultabad,20.0123656,75.1928883
Malegaon(Umarane),,
Kunda,25.75510515,81.58102934358104
Vaniyambadi,12.6787174,78.6199879
Denkanikottai,12.527088,77.792623
Mawiong Regulated Market,,
Benipir,,
Dehri,24.9258862,84.17287231549471
Bihiya,25.5586379,84.4488679
Aiginia Mandi,,
Bara Bazar (Posta Bazar),,
Tezu,27.9254195,96.1647135
Miao,27.4873015,96.2063386
Palghar,19.757249,73.09311986183509
Chennai,13.0836939,80.270186
Kasimbazar,,
ChinSurah,22.8854687,88.3837126
Raiganj(Kalinganj),,
Raiganj,25.6271966,88.1317967
Piro,25.338319149999997,84.35408775652671
Latehar,23.6880057,84.49695511086065
Pardi,20.5137936,72.9242196
Pardi(Vapi),,
Pardi(Ugvada),,
Pardi(Motavagachiya),,
Pardi(Rohinee),,
Valsad(Dungari),,
Vanthli,21.477849,70.331645
Bilimora(Gandevi),20.7671693,72.9693451
Vatpally,17.87707245,77.900335374908
Veraval,20.9101099,70.365279
Meghraj(Radlavada),,
Fulmbri,,
Higanghat Infrastructure Private Limited,,
Kai Madhavrao Pawar Khajgi Krushi Utappan Bazar Sa,,
Papparapatti,12.182216875869948,78.10894986730892
Cherthdla,,
Karuvannur,11.5046101,75.7737262
"Flower Market, Fatehpuri(Principal Yard, Mehrauli)",,
Curchorem,15.2617381,74.1082756
Valpol,,
Sanquelim,15.5626483,74.0114543
Pernem,15.7089964,73.8167602
Kalliakavillai,,
Ahmedabad(Flower Market Jamalpur),,
Allavaram,16.5140914,81.9878662
Palakode,12.0360966,75.21849762945953
Vathlagundu,,
Vadamadurai,10.4409616,78.1008154
Uthangarai,12.2752798,78.49388290617833
Khedbrahma(Posina),,
Kadi(Kadi cotton Yard),,
Ranpur,22.3598858,71.7169084
Manavdar,,
Gariyadar,,
Jasdan(Vichhiya),,
